$GPGGA,122553.906,3844.276,N,00908.338,W,1,12,1.0,0.0,M,0.0,M,,*70
$GPGSA,A,3,01,02,03,04,05,06,07,08,09,10,11,12,1.0,1.0,1.0*30
$GPRMC,122553.906,A,3844.276,N,00908.338,W,000.2,269.1,220123,000.0,W*6A
$GPGGA,122554.906,3844.276,N,00908.338,W,1,12,1.0,0.0,M,0.0,M,,*77
$GPGSA,A,3,01,02,03,04,05,06,07,08,09,10,11,12,1.0,1.0,1.0*30
$GPRMC,122554.906,A,3844.276,N,00908.338,W,000.2,269.1,220123,000.0,W*6D
$GPGGA,122555.906,3844.276,N,00908.338,W,1,12,1.0,0.0,M,0.0,M,,*76
$GPGSA,A,3,01,02,03,04,05,06,07,08,09,10,11,12,1.0,1.0,1.0*30
$GPRMC,122555.906,A,3844.276,N,00908.338,W,000.2,269.1,220123,000.0,W*6C
$GPGGA,122556.906,3844.276,N,00908.338,W,1,12,1.0,0.0,M,0.0,M,,*75
$GPGSA,A,3,01,02,03,04,05,06,07,08,09,10,11,12,1.0,1.0,1.0*30
$GPRMC,122556.906,A,3844.276,N,00908.338,W,000.2,269.1,220123,000.0,W*6F
$GPGGA,122557.906,3844.276,N,00908.338,W,1,12,1.0,0.0,M,0.0,M,,*74
$GPGSA,A,3,01,02,03,04,05,06,07,08,09,10,11,12,1.0,1.0,1.0*30
$GPRMC,122557.906,A,3844.276,N,00908.338,W,000.2,269.1,220123,000.0,W*6E
$GPGGA,122558.906,3844.276,N,00908.338,W,1,12,1.0,0.0,M,0.0,M,,*7B
$GPGSA,A,3,01,02,03,04,05,06,07,08,09,10,11,12,1.0,1.0,1.0*30
$GPRMC,122558.906,A,3844.276,N,00908.338,W,000.2,269.1,220123,000.0,W*61
$GPGGA,122559.906,3844.276,N,00908.338,W,1,12,1.0,0.0,M,0.0,M,,*7A
$GPGSA,A,3,01,02,03,04,05,06,07,08,09,10,11,12,1.0,1.0,1.0*30
$GPRMC,122559.906,A,3844.276,N,00908.338,W,000.2,269.1,220123,000.0,W*60
$GPGGA,122600.906,3844.276,N,00908.339,W,1,12,1.0,0.0,M,0.0,M,,*74
$GPGSA,A,3,01,02,03,04,05,06,07,08,09,10,11,12,1.0,1.0,1.0*30
$GPRMC,122600.906,A,3844.276,N,00908.339,W,000.2,269.1,220123,000.0,W*6E
$GPGGA,122601.906,3844.276,N,00908.339,W,1,12,1.0,0.0,M,0.0,M,,*75
$GPGSA,A,3,01,02,03,04,05,06,07,08,09,10,11,12,1.0,1.0,1.0*30
$GPRMC,122601.906,A,3844.276,N,00908.339,W,000.2,269.1,220123,000.0,W*6F
$GPGGA,122602.906,3844.276,N,00908.339,W,1,12,1.0,0.0,M,0.0,M,,*76
$GPGSA,A,3,01,02,03,04,05,06,07,08,09,10,11,12,1.0,1.0,1.0*30
$GPRMC,122602.906,A,3844.276,N,00908.339,W,000.2,269.1,220123,000.0,W*6C
$GPGGA,122603.906,3844.276,N,00908.339,W,1,12,1.0,0.0,M,0.0,M,,*77
$GPGSA,A,3,01,02,03,04,05,06,07,08,09,10,11,12,1.0,1.0,1.0*30
$GPRMC,122603.906,A,3844.276,N,00908.339,W,000.2,269.1,220123,000.0,W*6D
$GPGGA,122604.906,3844.276,N,00908.339,W,1,12,1.0,0.0,M,0.0,M,,*70
$GPGSA,A,3,01,02,03,04,05,06,07,08,09,10,11,12,1.0,1.0,1.0*30
$GPRMC,122604.906,A,3844.276,N,00908.339,W,000.2,269.1,220123,000.0,W*6A
$GPGGA,122605.906,3844.276,N,00908.339,W,1,12,1.0,0.0,M,0.0,M,,*71
$GPGSA,A,3,01,02,03,04,05,06,07,08,09,10,11,12,1.0,1.0,1.0*30
$GPRMC,122605.906,A,3844.276,N,00908.339,W,000.2,269.1,220123,000.0,W*6B
$GPGGA,122606.906,3844.276,N,00908.339,W,1,12,1.0,0.0,M,0.0,M,,*72
$GPGSA,A,3,01,02,03,04,05,06,07,08,09,10,11,12,1.0,1.0,1.0*30
$GPRMC,122606.906,A,3844.276,N,00908.339,W,000.2,269.1,220123,000.0,W*68
$GPGGA,122607.906,3844.276,N,00908.339,W,1,12,1.0,0.0,M,0.0,M,,*73
$GPGSA,A,3,01,02,03,04,05,06,07,08,09,10,11,12,1.0,1.0,1.0*30
$GPRMC,122607.906,A,3844.276,N,00908.339,W,000.2,269.1,220123,000.0,W*69
$GPGGA,122608.906,3844.276,N,00908.339,W,1,12,1.0,0.0,M,0.0,M,,*7C
$GPGSA,A,3,01,02,03,04,05,06,07,08,09,10,11,12,1.0,1.0,1.0*30
$GPRMC,122608.906,A,3844.276,N,00908.339,W,000.2,269.1,220123,000.0,W*66
$GPGGA,122609.906,3844.276,N,00908.339,W,1,12,1.0,0.0,M,0.0,M,,*7D
$GPGSA,A,3,01,02,03,04,05,06,07,08,09,10,11,12,1.0,1.0,1.0*30
$GPRMC,122609.906,A,3844.276,N,00908.339,W,000.2,269.1,220123,000.0,W*67
$GPGGA,122610.906,3844.276,N,00908.339,W,1,12,1.0,0.0,M,0.0,M,,*75
$GPGSA,A,3,01,02,03,04,05,06,07,08,09,10,11,12,1.0,1.0,1.0*30
$GPRMC,122610.906,A,3844.276,N,00908.339,W,000.2,269.1,220123,000.0,W*6F
$GPGGA,122611.906,3844.276,N,00908.339,W,1,12,1.0,0.0,M,0.0,M,,*74
$GPGSA,A,3,01,02,03,04,05,06,07,08,09,10,11,12,1.0,1.0,1.0*30
$GPRMC,122611.906,A,3844.276,N,00908.339,W,000.2,269.1,220123,000.0,W*6E
$GPGGA,122612.906,3844.276,N,00908.339,W,1,12,1.0,0.0,M,0.0,M,,*77
$GPGSA,A,3,01,02,03,04,05,06,07,08,09,10,11,12,1.0,1.0,1.0*30
$GPRMC,122612.906,A,3844.276,N,00908.339,W,000.2,269.1,220123,000.0,W*6D
$GPGGA,122613.906,3844.276,N,00908.339,W,1,12,1.0,0.0,M,0.0,M,,*76
$GPGSA,A,3,01,02,03,04,05,06,07,08,09,10,11,12,1.0,1.0,1.0*30
$GPRMC,122613.906,A,3844.276,N,00908.339,W,000.2,269.1,220123,000.0,W*6C
$GPGGA,122614.906,3844.276,N,00908.340,W,1,12,1.0,0.0,M,0.0,M,,*7F
$GPGSA,A,3,01,02,03,04,05,06,07,08,09,10,11,12,1.0,1.0,1.0*30
$GPRMC,122614.906,A,3844.276,N,00908.340,W,000.2,269.1,220123,000.0,W*65
$GPGGA,122615.906,3844.276,N,00908.340,W,1,12,1.0,0.0,M,0.0,M,,*7E
$GPGSA,A,3,01,02,03,04,05,06,07,08,09,10,11,12,1.0,1.0,1.0*30
$GPRMC,122615.906,A,3844.276,N,00908.340,W,000.2,269.1,220123,000.0,W*64
$GPGGA,122616.906,3844.276,N,00908.340,W,1,12,1.0,0.0,M,0.0,M,,*7D
$GPGSA,A,3,01,02,03,04,05,06,07,08,09,10,11,12,1.0,1.0,1.0*30
$GPRMC,122616.906,A,3844.276,N,00908.340,W,000.2,269.1,220123,000.0,W*67
$GPGGA,122617.906,3844.276,N,00908.340,W,1,12,1.0,0.0,M,0.0,M,,*7C
$GPGSA,A,3,01,02,03,04,05,06,07,08,09,10,11,12,1.0,1.0,1.0*30
$GPRMC,122617.906,A,3844.276,N,00908.340,W,000.2,269.1,220123,000.0,W*66
$GPGGA,122618.906,3844.276,N,00908.340,W,1,12,1.0,0.0,M,0.0,M,,*73
$GPGSA,A,3,01,02,03,04,05,06,07,08,09,10,11,12,1.0,1.0,1.0*30
$GPRMC,122618.906,A,3844.276,N,00908.340,W,000.2,269.1,220123,000.0,W*69
$GPGGA,122619.906,3844.276,N,00908.340,W,1,12,1.0,0.0,M,0.0,M,,*72
$GPGSA,A,3,01,02,03,04,05,06,07,08,09,10,11,12,1.0,1.0,1.0*30
$GPRMC,122619.906,A,3844.276,N,00908.340,W,000.2,269.1,220123,000.0,W*68
$GPGGA,122620.906,3844.276,N,00908.340,W,1,12,1.0,0.0,M,0.0,M,,*78
$GPGSA,A,3,01,02,03,04,05,06,07,08,09,10,11,12,1.0,1.0,1.0*30
$GPRMC,122620.906,A,3844.276,N,00908.340,W,000.2,269.1,220123,000.0,W*62
$GPGGA,122621.906,3844.276,N,00908.340,W,1,12,1.0,0.0,M,0.0,M,,*79
$GPGSA,A,3,01,02,03,04,05,06,07,08,09,10,11,12,1.0,1.0,1.0*30
$GPRMC,122621.906,A,3844.276,N,00908.340,W,000.2,269.1,220123,000.0,W*63
$GPGGA,122622.906,3844.276,N,00908.340,W,1,12,1.0,0.0,M,0.0,M,,*7A
$GPGSA,A,3,01,02,03,04,05,06,07,08,09,10,11,12,1.0,1.0,1.0*30
$GPRMC,122622.906,A,3844.276,N,00908.340,W,000.2,269.1,220123,000.0,W*60
$GPGGA,122623.906,3844.276,N,00908.340,W,1,12,1.0,0.0,M,0.0,M,,*7B
$GPGSA,A,3,01,02,03,04,05,06,07,08,09,10,11,12,1.0,1.0,1.0*30
$GPRMC,122623.906,A,3844.276,N,00908.340,W,000.2,269.1,220123,000.0,W*61
$GPGGA,122624.906,3844.276,N,00908.340,W,1,12,1.0,0.0,M,0.0,M,,*7C
$GPGSA,A,3,01,02,03,04,05,06,07,08,09,10,11,12,1.0,1.0,1.0*30
$GPRMC,122624.906,A,3844.276,N,00908.340,W,000.2,269.1,220123,000.0,W*66
$GPGGA,122625.906,3844.276,N,00908.340,W,1,12,1.0,0.0,M,0.0,M,,*7D
$GPGSA,A,3,01,02,03,04,05,06,07,08,09,10,11,12,1.0,1.0,1.0*30
$GPRMC,122625.906,A,3844.276,N,00908.340,W,000.2,269.1,220123,000.0,W*67
$GPGGA,122626.906,3844.276,N,00908.340,W,1,12,1.0,0.0,M,0.0,M,,*7E
$GPGSA,A,3,01,02,03,04,05,06,07,08,09,10,11,12,1.0,1.0,1.0*30
$GPRMC,122626.906,A,3844.276,N,00908.340,W,000.2,269.1,220123,000.0,W*64
$GPGGA,122627.906,3844.276,N,00908.340,W,1,12,1.0,0.0,M,0.0,M,,*7F
$GPGSA,A,3,01,02,03,04,05,06,07,08,09,10,11,12,1.0,1.0,1.0*30
$GPRMC,122627.906,A,3844.276,N,00908.340,W,000.2,269.1,220123,000.0,W*65
$GPGGA,122628.906,3844.276,N,00908.341,W,1,12,1.0,0.0,M,0.0,M,,*71
$GPGSA,A,3,01,02,03,04,05,06,07,08,09,10,11,12,1.0,1.0,1.0*30
$GPRMC,122628.906,A,3844.276,N,00908.341,W,000.2,269.1,220123,000.0,W*6B
$GPGGA,122629.906,3844.276,N,00908.341,W,1,12,1.0,0.0,M,0.0,M,,*70
$GPGSA,A,3,01,02,03,04,05,06,07,08,09,10,11,12,1.0,1.0,1.0*30
$GPRMC,122629.906,A,3844.276,N,00908.341,W,000.2,269.1,220123,000.0,W*6A
$GPGGA,122630.906,3844.276,N,00908.341,W,1,12,1.0,0.0,M,0.0,M,,*78
$GPGSA,A,3,01,02,03,04,05,06,07,08,09,10,11,12,1.0,1.0,1.0*30
$GPRMC,122630.906,A,3844.276,N,00908.341,W,000.2,269.1,220123,000.0,W*62
$GPGGA,122631.906,3844.276,N,00908.341,W,1,12,1.0,0.0,M,0.0,M,,*79
$GPGSA,A,3,01,02,03,04,05,06,07,08,09,10,11,12,1.0,1.0,1.0*30
$GPRMC,122631.906,A,3844.276,N,00908.341,W,000.2,269.1,220123,000.0,W*63
$GPGGA,122632.906,3844.276,N,00908.341,W,1,12,1.0,0.0,M,0.0,M,,*7A
$GPGSA,A,3,01,02,03,04,05,06,07,08,09,10,11,12,1.0,1.0,1.0*30
$GPRMC,122632.906,A,3844.276,N,00908.341,W,000.2,269.1,220123,000.0,W*60
$GPGGA,122633.906,3844.276,N,00908.341,W,1,12,1.0,0.0,M,0.0,M,,*7B
$GPGSA,A,3,01,02,03,04,05,06,07,08,09,10,11,12,1.0,1.0,1.0*30
$GPRMC,122633.906,A,3844.276,N,00908.341,W,000.2,269.1,220123,000.0,W*61
$GPGGA,122634.906,3844.276,N,00908.341,W,1,12,1.0,0.0,M,0.0,M,,*7C
$GPGSA,A,3,01,02,03,04,05,06,07,08,09,10,11,12,1.0,1.0,1.0*30
$GPRMC,122634.906,A,3844.276,N,00908.341,W,000.2,269.1,220123,000.0,W*66
$GPGGA,122635.906,3844.276,N,00908.341,W,1,12,1.0,0.0,M,0.0,M,,*7D
$GPGSA,A,3,01,02,03,04,05,06,07,08,09,10,11,12,1.0,1.0,1.0*30
$GPRMC,122635.906,A,3844.276,N,00908.341,W,000.2,269.1,220123,000.0,W*67
$GPGGA,122636.906,3844.276,N,00908.341,W,1,12,1.0,0.0,M,0.0,M,,*7E
$GPGSA,A,3,01,02,03,04,05,06,07,08,09,10,11,12,1.0,1.0,1.0*30
$GPRMC,122636.906,A,3844.276,N,00908.341,W,000.2,269.1,220123,000.0,W*64
$GPGGA,122637.906,3844.276,N,00908.341,W,1,12,1.0,0.0,M,0.0,M,,*7F
$GPGSA,A,3,01,02,03,04,05,06,07,08,09,10,11,12,1.0,1.0,1.0*30
$GPRMC,122637.906,A,3844.276,N,00908.341,W,000.2,269.1,220123,000.0,W*65
$GPGGA,122638.906,3844.276,N,00908.341,W,1,12,1.0,0.0,M,0.0,M,,*70
$GPGSA,A,3,01,02,03,04,05,06,07,08,09,10,11,12,1.0,1.0,1.0*30
$GPRMC,122638.906,A,3844.276,N,00908.341,W,000.2,269.1,220123,000.0,W*6A
$GPGGA,122639.906,3844.276,N,00908.341,W,1,12,1.0,0.0,M,0.0,M,,*71
$GPGSA,A,3,01,02,03,04,05,06,07,08,09,10,11,12,1.0,1.0,1.0*30
$GPRMC,122639.906,A,3844.276,N,00908.341,W,000.2,269.1,220123,000.0,W*6B
$GPGGA,122640.906,3844.276,N,00908.341,W,1,12,1.0,0.0,M,0.0,M,,*7F
$GPGSA,A,3,01,02,03,04,05,06,07,08,09,10,11,12,1.0,1.0,1.0*30
$GPRMC,122640.906,A,3844.276,N,00908.341,W,000.2,269.1,220123,000.0,W*65
$GPGGA,122641.906,3844.276,N,00908.341,W,1,12,1.0,0.0,M,0.0,M,,*7E
$GPGSA,A,3,01,02,03,04,05,06,07,08,09,10,11,12,1.0,1.0,1.0*30
$GPRMC,122641.906,A,3844.276,N,00908.341,W,000.2,269.1,220123,000.0,W*64
$GPGGA,122642.906,3844.276,N,00908.341,W,1,12,1.0,0.0,M,0.0,M,,*7D
$GPGSA,A,3,01,02,03,04,05,06,07,08,09,10,11,12,1.0,1.0,1.0*30
$GPRMC,122642.906,A,3844.276,N,00908.341,W,000.2,269.1,220123,000.0,W*67
$GPGGA,122643.906,3844.276,N,00908.342,W,1,12,1.0,0.0,M,0.0,M,,*7F
$GPGSA,A,3,01,02,03,04,05,06,07,08,09,10,11,12,1.0,1.0,1.0*30
$GPRMC,122643.906,A,3844.276,N,00908.342,W,000.2,269.1,220123,000.0,W*65
$GPGGA,122644.906,3844.276,N,00908.342,W,1,12,1.0,0.0,M,0.0,M,,*78
$GPGSA,A,3,01,02,03,04,05,06,07,08,09,10,11,12,1.0,1.0,1.0*30
$GPRMC,122644.906,A,3844.276,N,00908.342,W,000.2,269.1,220123,000.0,W*62
$GPGGA,122645.906,3844.276,N,00908.342,W,1,12,1.0,0.0,M,0.0,M,,*79
$GPGSA,A,3,01,02,03,04,05,06,07,08,09,10,11,12,1.0,1.0,1.0*30
$GPRMC,122645.906,A,3844.276,N,00908.342,W,000.2,269.1,220123,000.0,W*63
$GPGGA,122646.906,3844.276,N,00908.342,W,1,12,1.0,0.0,M,0.0,M,,*7A
$GPGSA,A,3,01,02,03,04,05,06,07,08,09,10,11,12,1.0,1.0,1.0*30
$GPRMC,122646.906,A,3844.276,N,00908.342,W,000.2,269.1,220123,000.0,W*60
$GPGGA,122647.906,3844.276,N,00908.342,W,1,12,1.0,0.0,M,0.0,M,,*7B
$GPGSA,A,3,01,02,03,04,05,06,07,08,09,10,11,12,1.0,1.0,1.0*30
$GPRMC,122647.906,A,3844.276,N,00908.342,W,000.2,269.1,220123,000.0,W*61
$GPGGA,122648.906,3844.276,N,00908.342,W,1,12,1.0,0.0,M,0.0,M,,*74
$GPGSA,A,3,01,02,03,04,05,06,07,08,09,10,11,12,1.0,1.0,1.0*30
$GPRMC,122648.906,A,3844.276,N,00908.342,W,000.2,269.1,220123,000.0,W*6E
$GPGGA,122649.906,3844.276,N,00908.342,W,1,12,1.0,0.0,M,0.0,M,,*75
$GPGSA,A,3,01,02,03,04,05,06,07,08,09,10,11,12,1.0,1.0,1.0*30
$GPRMC,122649.906,A,3844.276,N,00908.342,W,000.2,269.1,220123,000.0,W*6F
$GPGGA,122650.906,3844.276,N,00908.342,W,1,12,1.0,0.0,M,0.0,M,,*7D
$GPGSA,A,3,01,02,03,04,05,06,07,08,09,10,11,12,1.0,1.0,1.0*30
$GPRMC,122650.906,A,3844.276,N,00908.342,W,000.2,269.1,220123,000.0,W*67
$GPGGA,122651.906,3844.276,N,00908.342,W,1,12,1.0,0.0,M,0.0,M,,*7C
$GPGSA,A,3,01,02,03,04,05,06,07,08,09,10,11,12,1.0,1.0,1.0*30
$GPRMC,122651.906,A,3844.276,N,00908.342,W,000.2,269.1,220123,000.0,W*66
$GPGGA,122652.906,3844.276,N,00908.342,W,1,12,1.0,0.0,M,0.0,M,,*7F
$GPGSA,A,3,01,02,03,04,05,06,07,08,09,10,11,12,1.0,1.0,1.0*30
$GPRMC,122652.906,A,3844.276,N,00908.342,W,000.2,269.1,220123,000.0,W*65
$GPGGA,122653.906,3844.276,N,00908.342,W,1,12,1.0,0.0,M,0.0,M,,*7E
$GPGSA,A,3,01,02,03,04,05,06,07,08,09,10,11,12,1.0,1.0,1.0*30
$GPRMC,122653.906,A,3844.276,N,00908.342,W,000.2,269.1,220123,000.0,W*64
$GPGGA,122654.906,3844.276,N,00908.342,W,1,12,1.0,0.0,M,0.0,M,,*79
$GPGSA,A,3,01,02,03,04,05,06,07,08,09,10,11,12,1.0,1.0,1.0*30
$GPRMC,122654.906,A,3844.276,N,00908.342,W,000.2,269.1,220123,000.0,W*63
$GPGGA,122655.906,3844.276,N,00908.342,W,1,12,1.0,0.0,M,0.0,M,,*78
$GPGSA,A,3,01,02,03,04,05,06,07,08,09,10,11,12,1.0,1.0,1.0*30
$GPRMC,122655.906,A,3844.276,N,00908.342,W,000.2,269.1,220123,000.0,W*62
$GPGGA,122656.906,3844.276,N,00908.342,W,1,12,1.0,0.0,M,0.0,M,,*7B
$GPGSA,A,3,01,02,03,04,05,06,07,08,09,10,11,12,1.0,1.0,1.0*30
$GPRMC,122656.906,A,3844.276,N,00908.342,W,000.2,269.1,220123,000.0,W*61
$GPGGA,122657.906,3844.276,N,00908.343,W,1,12,1.0,0.0,M,0.0,M,,*7B
$GPGSA,A,3,01,02,03,04,05,06,07,08,09,10,11,12,1.0,1.0,1.0*30
$GPRMC,122657.906,A,3844.276,N,00908.343,W,000.2,269.1,220123,000.0,W*61
$GPGGA,122658.906,3844.276,N,00908.343,W,1,12,1.0,0.0,M,0.0,M,,*74
$GPGSA,A,3,01,02,03,04,05,06,07,08,09,10,11,12,1.0,1.0,1.0*30
$GPRMC,122658.906,A,3844.276,N,00908.343,W,000.2,269.1,220123,000.0,W*6E
$GPGGA,122659.906,3844.276,N,00908.343,W,1,12,1.0,0.0,M,0.0,M,,*75
$GPGSA,A,3,01,02,03,04,05,06,07,08,09,10,11,12,1.0,1.0,1.0*30
$GPRMC,122659.906,A,3844.276,N,00908.343,W,000.2,269.1,220123,000.0,W*6F
$GPGGA,122700.906,3844.276,N,00908.343,W,1,12,1.0,0.0,M,0.0,M,,*78
$GPGSA,A,3,01,02,03,04,05,06,07,08,09,10,11,12,1.0,1.0,1.0*30
$GPRMC,122700.906,A,3844.276,N,00908.343,W,000.2,269.1,220123,000.0,W*62
$GPGGA,122701.906,3844.276,N,00908.343,W,1,12,1.0,0.0,M,0.0,M,,*79
$GPGSA,A,3,01,02,03,04,05,06,07,08,09,10,11,12,1.0,1.0,1.0*30
$GPRMC,122701.906,A,3844.276,N,00908.343,W,000.2,269.1,220123,000.0,W*63
$GPGGA,122702.906,3844.276,N,00908.343,W,1,12,1.0,0.0,M,0.0,M,,*7A
$GPGSA,A,3,01,02,03,04,05,06,07,08,09,10,11,12,1.0,1.0,1.0*30
$GPRMC,122702.906,A,3844.276,N,00908.343,W,000.2,269.1,220123,000.0,W*60
$GPGGA,122703.906,3844.276,N,00908.343,W,1,12,1.0,0.0,M,0.0,M,,*7B
$GPGSA,A,3,01,02,03,04,05,06,07,08,09,10,11,12,1.0,1.0,1.0*30
$GPRMC,122703.906,A,3844.276,N,00908.343,W,000.2,269.1,220123,000.0,W*61
$GPGGA,122704.906,3844.276,N,00908.343,W,1,12,1.0,0.0,M,0.0,M,,*7C
$GPGSA,A,3,01,02,03,04,05,06,07,08,09,10,11,12,1.0,1.0,1.0*30
$GPRMC,122704.906,A,3844.276,N,00908.343,W,000.2,269.1,220123,000.0,W*66
$GPGGA,122705.906,3844.276,N,00908.343,W,1,12,1.0,0.0,M,0.0,M,,*7D
$GPGSA,A,3,01,02,03,04,05,06,07,08,09,10,11,12,1.0,1.0,1.0*30
$GPRMC,122705.906,A,3844.276,N,00908.343,W,000.2,269.1,220123,000.0,W*67
$GPGGA,122706.906,3844.276,N,00908.343,W,1,12,1.0,0.0,M,0.0,M,,*7E
$GPGSA,A,3,01,02,03,04,05,06,07,08,09,10,11,12,1.0,1.0,1.0*30
$GPRMC,122706.906,A,3844.276,N,00908.343,W,000.2,269.1,220123,000.0,W*64
$GPGGA,122707.906,3844.276,N,00908.343,W,1,12,1.0,0.0,M,0.0,M,,*7F
$GPGSA,A,3,01,02,03,04,05,06,07,08,09,10,11,12,1.0,1.0,1.0*30
$GPRMC,122707.906,A,3844.276,N,00908.343,W,000.2,269.1,220123,000.0,W*65
$GPGGA,122708.906,3844.276,N,00908.343,W,1,12,1.0,0.0,M,0.0,M,,*70
$GPGSA,A,3,01,02,03,04,05,06,07,08,09,10,11,12,1.0,1.0,1.0*30
$GPRMC,122708.906,A,3844.276,N,00908.343,W,000.2,269.1,220123,000.0,W*6A
$GPGGA,122709.906,3844.276,N,00908.343,W,1,12,1.0,0.0,M,0.0,M,,*71
$GPGSA,A,3,01,02,03,04,05,06,07,08,09,10,11,12,1.0,1.0,1.0*30
$GPRMC,122709.906,A,3844.276,N,00908.343,W,000.2,269.1,220123,000.0,W*6B
$GPGGA,122710.906,3844.276,N,00908.343,W,1,12,1.0,0.0,M,0.0,M,,*79
$GPGSA,A,3,01,02,03,04,05,06,07,08,09,10,11,12,1.0,1.0,1.0*30
$GPRMC,122710.906,A,3844.276,N,00908.343,W,000.2,269.1,220123,000.0,W*63
$GPGGA,122711.906,3844.276,N,00908.343,W,1,12,1.0,0.0,M,0.0,M,,*78
$GPGSA,A,3,01,02,03,04,05,06,07,08,09,10,11,12,1.0,1.0,1.0*30
$GPRMC,122711.906,A,3844.276,N,00908.343,W,000.2,269.1,220123,000.0,W*62
$GPGGA,122712.906,3844.276,N,00908.344,W,1,12,1.0,0.0,M,0.0,M,,*7C
$GPGSA,A,3,01,02,03,04,05,06,07,08,09,10,11,12,1.0,1.0,1.0*30
$GPRMC,122712.906,A,3844.276,N,00908.344,W,000.2,269.1,220123,000.0,W*66
$GPGGA,122713.906,3844.276,N,00908.344,W,1,12,1.0,0.0,M,0.0,M,,*7D
$GPGSA,A,3,01,02,03,04,05,06,07,08,09,10,11,12,1.0,1.0,1.0*30
$GPRMC,122713.906,A,3844.276,N,00908.344,W,000.2,269.1,220123,000.0,W*67
$GPGGA,122714.906,3844.276,N,00908.344,W,1,12,1.0,0.0,M,0.0,M,,*7A
$GPGSA,A,3,01,02,03,04,05,06,07,08,09,10,11,12,1.0,1.0,1.0*30
$GPRMC,122714.906,A,3844.276,N,00908.344,W,000.2,269.1,220123,000.0,W*60
$GPGGA,122715.906,3844.276,N,00908.344,W,1,12,1.0,0.0,M,0.0,M,,*7B
$GPGSA,A,3,01,02,03,04,05,06,07,08,09,10,11,12,1.0,1.0,1.0*30
$GPRMC,122715.906,A,3844.276,N,00908.344,W,000.2,269.1,220123,000.0,W*61
$GPGGA,122716.906,3844.276,N,00908.344,W,1,12,1.0,0.0,M,0.0,M,,*78
$GPGSA,A,3,01,02,03,04,05,06,07,08,09,10,11,12,1.0,1.0,1.0*30
$GPRMC,122716.906,A,3844.276,N,00908.344,W,000.2,269.1,220123,000.0,W*62
$GPGGA,122717.906,3844.276,N,00908.344,W,1,12,1.0,0.0,M,0.0,M,,*79
$GPGSA,A,3,01,02,03,04,05,06,07,08,09,10,11,12,1.0,1.0,1.0*30
$GPRMC,122717.906,A,3844.276,N,00908.344,W,000.2,269.1,220123,000.0,W*63
$GPGGA,122718.906,3844.276,N,00908.344,W,1,12,1.0,0.0,M,0.0,M,,*76
$GPGSA,A,3,01,02,03,04,05,06,07,08,09,10,11,12,1.0,1.0,1.0*30
$GPRMC,122718.906,A,3844.276,N,00908.344,W,000.2,269.1,220123,000.0,W*6C
$GPGGA,122719.906,3844.276,N,00908.344,W,1,12,1.0,0.0,M,0.0,M,,*77
$GPGSA,A,3,01,02,03,04,05,06,07,08,09,10,11,12,1.0,1.0,1.0*30
$GPRMC,122719.906,A,3844.276,N,00908.344,W,000.2,269.1,220123,000.0,W*6D
$GPGGA,122720.906,3844.276,N,00908.344,W,1,12,1.0,0.0,M,0.0,M,,*7D
$GPGSA,A,3,01,02,03,04,05,06,07,08,09,10,11,12,1.0,1.0,1.0*30
$GPRMC,122720.906,A,3844.276,N,00908.344,W,000.2,269.1,220123,000.0,W*67
$GPGGA,122721.906,3844.276,N,00908.344,W,1,12,1.0,0.0,M,0.0,M,,*7C
$GPGSA,A,3,01,02,03,04,05,06,07,08,09,10,11,12,1.0,1.0,1.0*30
$GPRMC,122721.906,A,3844.276,N,00908.344,W,000.2,269.1,220123,000.0,W*66
$GPGGA,122722.906,3844.276,N,00908.344,W,1,12,1.0,0.0,M,0.0,M,,*7F
$GPGSA,A,3,01,02,03,04,05,06,07,08,09,10,11,12,1.0,1.0,1.0*30
$GPRMC,122722.906,A,3844.276,N,00908.344,W,000.2,269.1,220123,000.0,W*65
$GPGGA,122723.906,3844.276,N,00908.344,W,1,12,1.0,0.0,M,0.0,M,,*7E
$GPGSA,A,3,01,02,03,04,05,06,07,08,09,10,11,12,1.0,1.0,1.0*30
$GPRMC,122723.906,A,3844.276,N,00908.344,W,000.2,269.1,220123,000.0,W*64
$GPGGA,122724.906,3844.276,N,00908.344,W,1,12,1.0,0.0,M,0.0,M,,*79
$GPGSA,A,3,01,02,03,04,05,06,07,08,09,10,11,12,1.0,1.0,1.0*30
$GPRMC,122724.906,A,3844.276,N,00908.344,W,000.2,269.1,220123,000.0,W*63
$GPGGA,122725.906,3844.276,N,00908.344,W,1,12,1.0,0.0,M,0.0,M,,*78
$GPGSA,A,3,01,02,03,04,05,06,07,08,09,10,11,12,1.0,1.0,1.0*30
$GPRMC,122725.906,A,3844.276,N,00908.344,W,000.2,269.1,220123,000.0,W*62
$GPGGA,122726.906,3844.276,N,00908.345,W,1,12,1.0,0.0,M,0.0,M,,*7A
$GPGSA,A,3,01,02,03,04,05,06,07,08,09,10,11,12,1.0,1.0,1.0*30
$GPRMC,122726.906,A,3844.276,N,00908.345,W,000.2,269.1,220123,000.0,W*60
$GPGGA,122727.906,3844.276,N,00908.345,W,1,12,1.0,0.0,M,0.0,M,,*7B
$GPGSA,A,3,01,02,03,04,05,06,07,08,09,10,11,12,1.0,1.0,1.0*30
$GPRMC,122727.906,A,3844.276,N,00908.345,W,000.2,269.1,220123,000.0,W*61
$GPGGA,122728.906,3844.276,N,00908.345,W,1,12,1.0,0.0,M,0.0,M,,*74
$GPGSA,A,3,01,02,03,04,05,06,07,08,09,10,11,12,1.0,1.0,1.0*30
$GPRMC,122728.906,A,3844.276,N,00908.345,W,000.2,269.1,220123,000.0,W*6E
$GPGGA,122729.906,3844.276,N,00908.345,W,1,12,1.0,0.0,M,0.0,M,,*75
$GPGSA,A,3,01,02,03,04,05,06,07,08,09,10,11,12,1.0,1.0,1.0*30
$GPRMC,122729.906,A,3844.276,N,00908.345,W,000.2,269.1,220123,000.0,W*6F
$GPGGA,122730.906,3844.276,N,00908.345,W,1,12,1.0,0.0,M,0.0,M,,*7D
$GPGSA,A,3,01,02,03,04,05,06,07,08,09,10,11,12,1.0,1.0,1.0*30
$GPRMC,122730.906,A,3844.276,N,00908.345,W,000.2,269.1,220123,000.0,W*67
$GPGGA,122731.906,3844.276,N,00908.345,W,1,12,1.0,0.0,M,0.0,M,,*7C
$GPGSA,A,3,01,02,03,04,05,06,07,08,09,10,11,12,1.0,1.0,1.0*30
$GPRMC,122731.906,A,3844.276,N,00908.345,W,000.2,269.1,220123,000.0,W*66
$GPGGA,122732.906,3844.276,N,00908.345,W,1,12,1.0,0.0,M,0.0,M,,*7F
$GPGSA,A,3,01,02,03,04,05,06,07,08,09,10,11,12,1.0,1.0,1.0*30
$GPRMC,122732.906,A,3844.276,N,00908.345,W,000.2,266.8,220123,000.0,W*63
$GPGGA,122733.906,3844.276,N,00908.345,W,1,12,1.0,0.0,M,0.0,M,,*7E
$GPGSA,A,3,01,02,03,04,05,06,07,08,09,10,11,12,1.0,1.0,1.0*30
$GPRMC,122733.906,A,3844.276,N,00908.345,W,000.2,266.8,220123,000.0,W*62
$GPGGA,122734.906,3844.276,N,00908.345,W,1,12,1.0,0.0,M,0.0,M,,*79
$GPGSA,A,3,01,02,03,04,05,06,07,08,09,10,11,12,1.0,1.0,1.0*30
$GPRMC,122734.906,A,3844.276,N,00908.345,W,000.2,266.8,220123,000.0,W*65
$GPGGA,122735.906,3844.276,N,00908.345,W,1,12,1.0,0.0,M,0.0,M,,*78
$GPGSA,A,3,01,02,03,04,05,06,07,08,09,10,11,12,1.0,1.0,1.0*30
$GPRMC,122735.906,A,3844.276,N,00908.345,W,000.2,266.8,220123,000.0,W*64
$GPGGA,122736.906,3844.276,N,00908.345,W,1,12,1.0,0.0,M,0.0,M,,*7B
$GPGSA,A,3,01,02,03,04,05,06,07,08,09,10,11,12,1.0,1.0,1.0*30
$GPRMC,122736.906,A,3844.276,N,00908.345,W,000.2,259.9,220123,000.0,W*6A
$GPGGA,122737.906,3844.276,N,00908.345,W,1,12,1.0,0.0,M,0.0,M,,*7A
$GPGSA,A,3,01,02,03,04,05,06,07,08,09,10,11,12,1.0,1.0,1.0*30
$GPRMC,122737.906,A,3844.276,N,00908.345,W,000.2,259.9,220123,000.0,W*6B
$GPGGA,122738.906,3844.276,N,00908.345,W,1,12,1.0,0.0,M,0.0,M,,*75
$GPGSA,A,3,01,02,03,04,05,06,07,08,09,10,11,12,1.0,1.0,1.0*30
$GPRMC,122738.906,A,3844.276,N,00908.345,W,000.2,259.9,220123,000.0,W*64
$GPGGA,122739.906,3844.276,N,00908.345,W,1,12,1.0,0.0,M,0.0,M,,*74
$GPGSA,A,3,01,02,03,04,05,06,07,08,09,10,11,12,1.0,1.0,1.0*30
$GPRMC,122739.906,A,3844.276,N,00908.345,W,000.2,259.9,220123,000.0,W*65
$GPGGA,122740.906,3844.276,N,00908.345,W,1,12,1.0,0.0,M,0.0,M,,*7A
$GPGSA,A,3,01,02,03,04,05,06,07,08,09,10,11,12,1.0,1.0,1.0*30
$GPRMC,122740.906,A,3844.276,N,00908.345,W,000.2,259.9,220123,000.0,W*6B
$GPGGA,122741.906,3844.276,N,00908.346,W,1,12,1.0,0.0,M,0.0,M,,*78
$GPGSA,A,3,01,02,03,04,05,06,07,08,09,10,11,12,1.0,1.0,1.0*30
$GPRMC,122741.906,A,3844.276,N,00908.346,W,000.2,252.1,220123,000.0,W*6A
$GPGGA,122742.906,3844.276,N,00908.346,W,1,12,1.0,0.0,M,0.0,M,,*7B
$GPGSA,A,3,01,02,03,04,05,06,07,08,09,10,11,12,1.0,1.0,1.0*30
$GPRMC,122742.906,A,3844.276,N,00908.346,W,000.2,252.1,220123,000.0,W*69
$GPGGA,122743.906,3844.276,N,00908.346,W,1,12,1.0,0.0,M,0.0,M,,*7A
$GPGSA,A,3,01,02,03,04,05,06,07,08,09,10,11,12,1.0,1.0,1.0*30
$GPRMC,122743.906,A,3844.276,N,00908.346,W,000.2,252.1,220123,000.0,W*68
$GPGGA,122744.906,3844.276,N,00908.346,W,1,12,1.0,0.0,M,0.0,M,,*7D
$GPGSA,A,3,01,02,03,04,05,06,07,08,09,10,11,12,1.0,1.0,1.0*30
$GPRMC,122744.906,A,3844.276,N,00908.346,W,000.2,252.1,220123,000.0,W*6F
$GPGGA,122745.906,3844.276,N,00908.346,W,1,12,1.0,0.0,M,0.0,M,,*7C
$GPGSA,A,3,01,02,03,04,05,06,07,08,09,10,11,12,1.0,1.0,1.0*30
$GPRMC,122745.906,A,3844.276,N,00908.346,W,000.2,240.9,220123,000.0,W*65
$GPGGA,122746.906,3844.276,N,00908.346,W,1,12,1.0,0.0,M,0.0,M,,*7F
$GPGSA,A,3,01,02,03,04,05,06,07,08,09,10,11,12,1.0,1.0,1.0*30
$GPRMC,122746.906,A,3844.276,N,00908.346,W,000.2,240.9,220123,000.0,W*66
$GPGGA,122747.906,3844.276,N,00908.346,W,1,12,1.0,0.0,M,0.0,M,,*7E
$GPGSA,A,3,01,02,03,04,05,06,07,08,09,10,11,12,1.0,1.0,1.0*30
$GPRMC,122747.906,A,3844.276,N,00908.346,W,000.2,240.9,220123,000.0,W*67
$GPGGA,122748.906,3844.276,N,00908.346,W,1,12,1.0,0.0,M,0.0,M,,*71
$GPGSA,A,3,01,02,03,04,05,06,07,08,09,10,11,12,1.0,1.0,1.0*30
$GPRMC,122748.906,A,3844.276,N,00908.346,W,000.2,240.9,220123,000.0,W*68
$GPGGA,122749.906,3844.276,N,00908.346,W,1,12,1.0,0.0,M,0.0,M,,*70
$GPGSA,A,3,01,02,03,04,05,06,07,08,09,10,11,12,1.0,1.0,1.0*30
$GPRMC,122749.906,A,3844.276,N,00908.346,W,000.2,240.9,220123,000.0,W*69
$GPGGA,122750.906,3844.276,N,00908.346,W,1,12,1.0,0.0,M,0.0,M,,*78
$GPGSA,A,3,01,02,03,04,05,06,07,08,09,10,11,12,1.0,1.0,1.0*30
$GPRMC,122750.906,A,3844.276,N,00908.346,W,000.2,238.2,220123,000.0,W*65
$GPGGA,122751.906,3844.276,N,00908.346,W,1,12,1.0,0.0,M,0.0,M,,*79
$GPGSA,A,3,01,02,03,04,05,06,07,08,09,10,11,12,1.0,1.0,1.0*30
$GPRMC,122751.906,A,3844.276,N,00908.346,W,000.2,238.2,220123,000.0,W*64
$GPGGA,122752.906,3844.276,N,00908.346,W,1,12,1.0,0.0,M,0.0,M,,*7A
$GPGSA,A,3,01,02,03,04,05,06,07,08,09,10,11,12,1.0,1.0,1.0*30
$GPRMC,122752.906,A,3844.276,N,00908.346,W,000.2,238.2,220123,000.0,W*67
$GPGGA,122753.906,3844.276,N,00908.346,W,1,12,1.0,0.0,M,0.0,M,,*7B
$GPGSA,A,3,01,02,03,04,05,06,07,08,09,10,11,12,1.0,1.0,1.0*30
$GPRMC,122753.906,A,3844.276,N,00908.346,W,000.2,238.2,220123,000.0,W*66
$GPGGA,122754.906,3844.276,N,00908.346,W,1,12,1.0,0.0,M,0.0,M,,*7C
$GPGSA,A,3,01,02,03,04,05,06,07,08,09,10,11,12,1.0,1.0,1.0*30
$GPRMC,122754.906,A,3844.276,N,00908.346,W,000.2,238.2,220123,000.0,W*61
$GPGGA,122755.906,3844.276,N,00908.346,W,1,12,1.0,0.0,M,0.0,M,,*7D
$GPGSA,A,3,01,02,03,04,05,06,07,08,09,10,11,12,1.0,1.0,1.0*30
$GPRMC,122755.906,A,3844.276,N,00908.346,W,000.2,238.2,220123,000.0,W*60
$GPGGA,122756.906,3844.276,N,00908.346,W,1,12,1.0,0.0,M,0.0,M,,*7E
$GPGSA,A,3,01,02,03,04,05,06,07,08,09,10,11,12,1.0,1.0,1.0*30
$GPRMC,122756.906,A,3844.276,N,00908.346,W,000.2,232.1,220123,000.0,W*6A
$GPGGA,122757.906,3844.276,N,00908.346,W,1,12,1.0,0.0,M,0.0,M,,*7F
$GPGSA,A,3,01,02,03,04,05,06,07,08,09,10,11,12,1.0,1.0,1.0*30
$GPRMC,122757.906,A,3844.276,N,00908.346,W,000.2,232.1,220123,000.0,W*6B
$GPGGA,122758.906,3844.276,N,00908.347,W,1,12,1.0,0.0,M,0.0,M,,*71
$GPGSA,A,3,01,02,03,04,05,06,07,08,09,10,11,12,1.0,1.0,1.0*30
$GPRMC,122758.906,A,3844.276,N,00908.347,W,000.2,232.1,220123,000.0,W*65
$GPGGA,122759.906,3844.276,N,00908.347,W,1,12,1.0,0.0,M,0.0,M,,*70
$GPGSA,A,3,01,02,03,04,05,06,07,08,09,10,11,12,1.0,1.0,1.0*30
$GPRMC,122759.906,A,3844.276,N,00908.347,W,000.2,226.3,220123,000.0,W*63
$GPGGA,122800.906,3844.276,N,00908.347,W,1,12,1.0,0.0,M,0.0,M,,*73
$GPGSA,A,3,01,02,03,04,05,06,07,08,09,10,11,12,1.0,1.0,1.0*30
$GPRMC,122800.906,A,3844.276,N,00908.347,W,000.2,226.3,220123,000.0,W*60
$GPGGA,122801.906,3844.275,N,00908.347,W,1,12,1.0,0.0,M,0.0,M,,*71
$GPGSA,A,3,01,02,03,04,05,06,07,08,09,10,11,12,1.0,1.0,1.0*30
$GPRMC,122801.906,A,3844.275,N,00908.347,W,000.2,226.3,220123,000.0,W*62
$GPGGA,122802.906,3844.275,N,00908.347,W,1,12,1.0,0.0,M,0.0,M,,*72
$GPGSA,A,3,01,02,03,04,05,06,07,08,09,10,11,12,1.0,1.0,1.0*30
$GPRMC,122802.906,A,3844.275,N,00908.347,W,000.2,226.3,220123,000.0,W*61
$GPGGA,122803.906,3844.275,N,00908.347,W,1,12,1.0,0.0,M,0.0,M,,*73
$GPGSA,A,3,01,02,03,04,05,06,07,08,09,10,11,12,1.0,1.0,1.0*30
$GPRMC,122803.906,A,3844.275,N,00908.347,W,000.2,219.3,220123,000.0,W*6C
$GPGGA,122804.906,3844.275,N,00908.347,W,1,12,1.0,0.0,M,0.0,M,,*74
$GPGSA,A,3,01,02,03,04,05,06,07,08,09,10,11,12,1.0,1.0,1.0*30
$GPRMC,122804.906,A,3844.275,N,00908.347,W,000.2,219.3,220123,000.0,W*6B
$GPGGA,122805.906,3844.275,N,00908.347,W,1,12,1.0,0.0,M,0.0,M,,*75
$GPGSA,A,3,01,02,03,04,05,06,07,08,09,10,11,12,1.0,1.0,1.0*30
$GPRMC,122805.906,A,3844.275,N,00908.347,W,000.2,219.3,220123,000.0,W*6A
$GPGGA,122806.906,3844.275,N,00908.347,W,1,12,1.0,0.0,M,0.0,M,,*76
$GPGSA,A,3,01,02,03,04,05,06,07,08,09,10,11,12,1.0,1.0,1.0*30
$GPRMC,122806.906,A,3844.275,N,00908.347,W,000.2,210.3,220123,000.0,W*60
$GPGGA,122807.906,3844.275,N,00908.347,W,1,12,1.0,0.0,M,0.0,M,,*77
$GPGSA,A,3,01,02,03,04,05,06,07,08,09,10,11,12,1.0,1.0,1.0*30
$GPRMC,122807.906,A,3844.275,N,00908.347,W,000.2,210.3,220123,000.0,W*61
$GPGGA,122808.906,3844.275,N,00908.347,W,1,12,1.0,0.0,M,0.0,M,,*78
$GPGSA,A,3,01,02,03,04,05,06,07,08,09,10,11,12,1.0,1.0,1.0*30
$GPRMC,122808.906,A,3844.275,N,00908.347,W,000.2,210.3,220123,000.0,W*6E
$GPGGA,122809.906,3844.275,N,00908.347,W,1,12,1.0,0.0,M,0.0,M,,*79
$GPGSA,A,3,01,02,03,04,05,06,07,08,09,10,11,12,1.0,1.0,1.0*30
$GPRMC,122809.906,A,3844.275,N,00908.347,W,000.2,210.3,220123,000.0,W*6F
$GPGGA,122810.906,3844.275,N,00908.347,W,1,12,1.0,0.0,M,0.0,M,,*71
$GPGSA,A,3,01,02,03,04,05,06,07,08,09,10,11,12,1.0,1.0,1.0*30
$GPRMC,122810.906,A,3844.275,N,00908.347,W,000.2,193.2,220123,000.0,W*6E
$GPGGA,122811.906,3844.275,N,00908.347,W,1,12,1.0,0.0,M,0.0,M,,*70
$GPGSA,A,3,01,02,03,04,05,06,07,08,09,10,11,12,1.0,1.0,1.0*30
$GPRMC,122811.906,A,3844.275,N,00908.347,W,000.2,193.2,220123,000.0,W*6F
$GPGGA,122812.906,3844.275,N,00908.347,W,1,12,1.0,0.0,M,0.0,M,,*73
$GPGSA,A,3,01,02,03,04,05,06,07,08,09,10,11,12,1.0,1.0,1.0*30
$GPRMC,122812.906,A,3844.275,N,00908.347,W,000.2,193.2,220123,000.0,W*6C
$GPGGA,122813.906,3844.275,N,00908.347,W,1,12,1.0,0.0,M,0.0,M,,*72
$GPGSA,A,3,01,02,03,04,05,06,07,08,09,10,11,12,1.0,1.0,1.0*30
$GPRMC,122813.906,A,3844.275,N,00908.347,W,000.2,193.2,220123,000.0,W*6D
$GPGGA,122814.906,3844.275,N,00908.347,W,1,12,1.0,0.0,M,0.0,M,,*75
$GPGSA,A,3,01,02,03,04,05,06,07,08,09,10,11,12,1.0,1.0,1.0*30
$GPRMC,122814.906,A,3844.275,N,00908.347,W,000.2,194.1,220123,000.0,W*6E
$GPGGA,122815.906,3844.275,N,00908.347,W,1,12,1.0,0.0,M,0.0,M,,*74
$GPGSA,A,3,01,02,03,04,05,06,07,08,09,10,11,12,1.0,1.0,1.0*30
$GPRMC,122815.906,A,3844.275,N,00908.347,W,000.2,194.1,220123,000.0,W*6F
$GPGGA,122816.906,3844.275,N,00908.347,W,1,12,1.0,0.0,M,0.0,M,,*77
$GPGSA,A,3,01,02,03,04,05,06,07,08,09,10,11,12,1.0,1.0,1.0*30
$GPRMC,122816.906,A,3844.275,N,00908.347,W,000.2,194.1,220123,000.0,W*6C
$GPGGA,122817.906,3844.275,N,00908.347,W,1,12,1.0,0.0,M,0.0,M,,*76
$GPGSA,A,3,01,02,03,04,05,06,07,08,09,10,11,12,1.0,1.0,1.0*30
$GPRMC,122817.906,A,3844.275,N,00908.347,W,000.2,182.6,220123,000.0,W*6D
$GPGGA,122818.906,3844.275,N,00908.347,W,1,12,1.0,0.0,M,0.0,M,,*79
$GPGSA,A,3,01,02,03,04,05,06,07,08,09,10,11,12,1.0,1.0,1.0*30
$GPRMC,122818.906,A,3844.275,N,00908.347,W,000.2,182.6,220123,000.0,W*62
$GPGGA,122819.906,3844.275,N,00908.347,W,1,12,1.0,0.0,M,0.0,M,,*78
$GPGSA,A,3,01,02,03,04,05,06,07,08,09,10,11,12,1.0,1.0,1.0*30
$GPRMC,122819.906,A,3844.275,N,00908.347,W,000.2,182.6,220123,000.0,W*63
$GPGGA,122820.906,3844.275,N,00908.347,W,1,12,1.0,0.0,M,0.0,M,,*72
$GPGSA,A,3,01,02,03,04,05,06,07,08,09,10,11,12,1.0,1.0,1.0*30
$GPRMC,122820.906,A,3844.275,N,00908.347,W,000.2,184.0,220123,000.0,W*69
$GPGGA,122821.906,3844.274,N,00908.347,W,1,12,1.0,0.0,M,0.0,M,,*72
$GPGSA,A,3,01,02,03,04,05,06,07,08,09,10,11,12,1.0,1.0,1.0*30
$GPRMC,122821.906,A,3844.274,N,00908.347,W,000.2,184.0,220123,000.0,W*69
$GPGGA,122822.906,3844.274,N,00908.347,W,1,12,1.0,0.0,M,0.0,M,,*71
$GPGSA,A,3,01,02,03,04,05,06,07,08,09,10,11,12,1.0,1.0,1.0*30
$GPRMC,122822.906,A,3844.274,N,00908.347,W,000.2,184.0,220123,000.0,W*6A
$GPGGA,122823.906,3844.274,N,00908.347,W,1,12,1.0,0.0,M,0.0,M,,*70
$GPGSA,A,3,01,02,03,04,05,06,07,08,09,10,11,12,1.0,1.0,1.0*30
$GPRMC,122823.906,A,3844.274,N,00908.347,W,000.2,184.0,220123,000.0,W*6B
$GPGGA,122824.906,3844.274,N,00908.347,W,1,12,1.0,0.0,M,0.0,M,,*77
$GPGSA,A,3,01,02,03,04,05,06,07,08,09,10,11,12,1.0,1.0,1.0*30
$GPRMC,122824.906,A,3844.274,N,00908.347,W,000.2,184.0,220123,000.0,W*6C
$GPGGA,122825.906,3844.274,N,00908.347,W,1,12,1.0,0.0,M,0.0,M,,*76
$GPGSA,A,3,01,02,03,04,05,06,07,08,09,10,11,12,1.0,1.0,1.0*30
$GPRMC,122825.906,A,3844.274,N,00908.347,W,000.2,180.9,220123,000.0,W*60
$GPGGA,122826.906,3844.274,N,00908.347,W,1,12,1.0,0.0,M,0.0,M,,*75
$GPGSA,A,3,01,02,03,04,05,06,07,08,09,10,11,12,1.0,1.0,1.0*30
$GPRMC,122826.906,A,3844.274,N,00908.347,W,000.2,180.9,220123,000.0,W*63
$GPGGA,122827.906,3844.274,N,00908.347,W,1,12,1.0,0.0,M,0.0,M,,*74
$GPGSA,A,3,01,02,03,04,05,06,07,08,09,10,11,12,1.0,1.0,1.0*30
$GPRMC,122827.906,A,3844.274,N,00908.347,W,000.2,180.9,220123,000.0,W*62
$GPGGA,122828.906,3844.274,N,00908.347,W,1,12,1.0,0.0,M,0.0,M,,*7B
$GPGSA,A,3,01,02,03,04,05,06,07,08,09,10,11,12,1.0,1.0,1.0*30
$GPRMC,122828.906,A,3844.274,N,00908.347,W,000.2,185.5,220123,000.0,W*64
$GPGGA,122829.906,3844.274,N,00908.347,W,1,12,1.0,0.0,M,0.0,M,,*7A
$GPGSA,A,3,01,02,03,04,05,06,07,08,09,10,11,12,1.0,1.0,1.0*30
$GPRMC,122829.906,A,3844.274,N,00908.347,W,000.2,185.5,220123,000.0,W*65
$GPGGA,122830.906,3844.274,N,00908.347,W,1,12,1.0,0.0,M,0.0,M,,*72
$GPGSA,A,3,01,02,03,04,05,06,07,08,09,10,11,12,1.0,1.0,1.0*30
$GPRMC,122830.906,A,3844.274,N,00908.347,W,000.2,185.5,220123,000.0,W*6D
$GPGGA,122831.906,3844.274,N,00908.347,W,1,12,1.0,0.0,M,0.0,M,,*73
$GPGSA,A,3,01,02,03,04,05,06,07,08,09,10,11,12,1.0,1.0,1.0*30
$GPRMC,122831.906,A,3844.274,N,00908.347,W,000.2,185.5,220123,000.0,W*6C
