$GPGGA,112956.466,3844.279,N,00908.308,W,1,12,1.0,0.0,M,0.0,M,,*7D
$GPGSA,A,3,01,02,03,04,05,06,07,08,09,10,11,12,1.0,1.0,1.0*30
$GPRMC,112956.466,A,3844.279,N,00908.308,W,000.2,267.3,220123,000.0,W*6B
$GPGGA,112957.466,3844.279,N,00908.308,W,1,12,1.0,0.0,M,0.0,M,,*7C
$GPGSA,A,3,01,02,03,04,05,06,07,08,09,10,11,12,1.0,1.0,1.0*30
$GPRMC,112957.466,A,3844.279,N,00908.308,W,000.2,267.3,220123,000.0,W*6A
$GPGGA,112958.466,3844.279,N,00908.308,W,1,12,1.0,0.0,M,0.0,M,,*73
$GPGSA,A,3,01,02,03,04,05,06,07,08,09,10,11,12,1.0,1.0,1.0*30
$GPRMC,112958.466,A,3844.279,N,00908.308,W,000.2,267.3,220123,000.0,W*65
$GPGGA,112959.466,3844.279,N,00908.308,W,1,12,1.0,0.0,M,0.0,M,,*72
$GPGSA,A,3,01,02,03,04,05,06,07,08,09,10,11,12,1.0,1.0,1.0*30
$GPRMC,112959.466,A,3844.279,N,00908.308,W,000.2,267.3,220123,000.0,W*64
$GPGGA,113000.466,3844.279,N,00908.308,W,1,12,1.0,0.0,M,0.0,M,,*76
$GPGSA,A,3,01,02,03,04,05,06,07,08,09,10,11,12,1.0,1.0,1.0*30
$GPRMC,113000.466,A,3844.279,N,00908.308,W,000.2,267.3,220123,000.0,W*60
$GPGGA,113001.466,3844.279,N,00908.308,W,1,12,1.0,0.0,M,0.0,M,,*77
$GPGSA,A,3,01,02,03,04,05,06,07,08,09,10,11,12,1.0,1.0,1.0*30
$GPRMC,113001.466,A,3844.279,N,00908.308,W,000.2,267.3,220123,000.0,W*61
$GPGGA,113002.466,3844.279,N,00908.308,W,1,12,1.0,0.0,M,0.0,M,,*74
$GPGSA,A,3,01,02,03,04,05,06,07,08,09,10,11,12,1.0,1.0,1.0*30
$GPRMC,113002.466,A,3844.279,N,00908.308,W,000.2,267.3,220123,000.0,W*62
$GPGGA,113003.466,3844.279,N,00908.308,W,1,12,1.0,0.0,M,0.0,M,,*75
$GPGSA,A,3,01,02,03,04,05,06,07,08,09,10,11,12,1.0,1.0,1.0*30
$GPRMC,113003.466,A,3844.279,N,00908.308,W,000.2,267.3,220123,000.0,W*63
$GPGGA,113004.466,3844.279,N,00908.308,W,1,12,1.0,0.0,M,0.0,M,,*72
$GPGSA,A,3,01,02,03,04,05,06,07,08,09,10,11,12,1.0,1.0,1.0*30
$GPRMC,113004.466,A,3844.279,N,00908.308,W,000.2,267.3,220123,000.0,W*64
$GPGGA,113005.466,3844.279,N,00908.308,W,1,12,1.0,0.0,M,0.0,M,,*73
$GPGSA,A,3,01,02,03,04,05,06,07,08,09,10,11,12,1.0,1.0,1.0*30
$GPRMC,113005.466,A,3844.279,N,00908.308,W,000.2,267.3,220123,000.0,W*65
$GPGGA,113006.466,3844.279,N,00908.308,W,1,12,1.0,0.0,M,0.0,M,,*70
$GPGSA,A,3,01,02,03,04,05,06,07,08,09,10,11,12,1.0,1.0,1.0*30
$GPRMC,113006.466,A,3844.279,N,00908.308,W,000.2,267.3,220123,000.0,W*66
$GPGGA,113007.466,3844.279,N,00908.308,W,1,12,1.0,0.0,M,0.0,M,,*71
$GPGSA,A,3,01,02,03,04,05,06,07,08,09,10,11,12,1.0,1.0,1.0*30
$GPRMC,113007.466,A,3844.279,N,00908.308,W,000.2,267.3,220123,000.0,W*67
$GPGGA,113008.466,3844.279,N,00908.308,W,1,12,1.0,0.0,M,0.0,M,,*7E
$GPGSA,A,3,01,02,03,04,05,06,07,08,09,10,11,12,1.0,1.0,1.0*30
$GPRMC,113008.466,A,3844.279,N,00908.308,W,000.2,267.3,220123,000.0,W*68
$GPGGA,113009.466,3844.279,N,00908.308,W,1,12,1.0,0.0,M,0.0,M,,*7F
$GPGSA,A,3,01,02,03,04,05,06,07,08,09,10,11,12,1.0,1.0,1.0*30
$GPRMC,113009.466,A,3844.279,N,00908.308,W,000.2,267.3,220123,000.0,W*69
$GPGGA,113010.466,3844.279,N,00908.308,W,1,12,1.0,0.0,M,0.0,M,,*77
$GPGSA,A,3,01,02,03,04,05,06,07,08,09,10,11,12,1.0,1.0,1.0*30
$GPRMC,113010.466,A,3844.279,N,00908.308,W,000.2,267.3,220123,000.0,W*61
$GPGGA,113011.466,3844.279,N,00908.309,W,1,12,1.0,0.0,M,0.0,M,,*77
$GPGSA,A,3,01,02,03,04,05,06,07,08,09,10,11,12,1.0,1.0,1.0*30
$GPRMC,113011.466,A,3844.279,N,00908.309,W,000.2,267.3,220123,000.0,W*61
$GPGGA,113012.466,3844.279,N,00908.309,W,1,12,1.0,0.0,M,0.0,M,,*74
$GPGSA,A,3,01,02,03,04,05,06,07,08,09,10,11,12,1.0,1.0,1.0*30
$GPRMC,113012.466,A,3844.279,N,00908.309,W,000.2,267.3,220123,000.0,W*62
$GPGGA,113013.466,3844.279,N,00908.309,W,1,12,1.0,0.0,M,0.0,M,,*75
$GPGSA,A,3,01,02,03,04,05,06,07,08,09,10,11,12,1.0,1.0,1.0*30
$GPRMC,113013.466,A,3844.279,N,00908.309,W,000.2,267.3,220123,000.0,W*63
$GPGGA,113014.466,3844.279,N,00908.309,W,1,12,1.0,0.0,M,0.0,M,,*72
$GPGSA,A,3,01,02,03,04,05,06,07,08,09,10,11,12,1.0,1.0,1.0*30
$GPRMC,113014.466,A,3844.279,N,00908.309,W,000.2,267.3,220123,000.0,W*64
$GPGGA,113015.466,3844.279,N,00908.309,W,1,12,1.0,0.0,M,0.0,M,,*73
$GPGSA,A,3,01,02,03,04,05,06,07,08,09,10,11,12,1.0,1.0,1.0*30
$GPRMC,113015.466,A,3844.279,N,00908.309,W,000.2,267.3,220123,000.0,W*65
$GPGGA,113016.466,3844.279,N,00908.309,W,1,12,1.0,0.0,M,0.0,M,,*70
$GPGSA,A,3,01,02,03,04,05,06,07,08,09,10,11,12,1.0,1.0,1.0*30
$GPRMC,113016.466,A,3844.279,N,00908.309,W,000.2,267.3,220123,000.0,W*66
$GPGGA,113017.466,3844.279,N,00908.309,W,1,12,1.0,0.0,M,0.0,M,,*71
$GPGSA,A,3,01,02,03,04,05,06,07,08,09,10,11,12,1.0,1.0,1.0*30
$GPRMC,113017.466,A,3844.279,N,00908.309,W,000.2,267.3,220123,000.0,W*67
$GPGGA,113018.466,3844.279,N,00908.309,W,1,12,1.0,0.0,M,0.0,M,,*7E
$GPGSA,A,3,01,02,03,04,05,06,07,08,09,10,11,12,1.0,1.0,1.0*30
$GPRMC,113018.466,A,3844.279,N,00908.309,W,000.2,267.3,220123,000.0,W*68
$GPGGA,113019.466,3844.279,N,00908.309,W,1,12,1.0,0.0,M,0.0,M,,*7F
$GPGSA,A,3,01,02,03,04,05,06,07,08,09,10,11,12,1.0,1.0,1.0*30
$GPRMC,113019.466,A,3844.279,N,00908.309,W,000.2,267.3,220123,000.0,W*69
$GPGGA,113020.466,3844.279,N,00908.309,W,1,12,1.0,0.0,M,0.0,M,,*75
$GPGSA,A,3,01,02,03,04,05,06,07,08,09,10,11,12,1.0,1.0,1.0*30
$GPRMC,113020.466,A,3844.279,N,00908.309,W,000.2,267.3,220123,000.0,W*63
$GPGGA,113021.466,3844.279,N,00908.309,W,1,12,1.0,0.0,M,0.0,M,,*74
$GPGSA,A,3,01,02,03,04,05,06,07,08,09,10,11,12,1.0,1.0,1.0*30
$GPRMC,113021.466,A,3844.279,N,00908.309,W,000.2,267.3,220123,000.0,W*62
$GPGGA,113022.466,3844.279,N,00908.309,W,1,12,1.0,0.0,M,0.0,M,,*77
$GPGSA,A,3,01,02,03,04,05,06,07,08,09,10,11,12,1.0,1.0,1.0*30
$GPRMC,113022.466,A,3844.279,N,00908.309,W,000.2,267.3,220123,000.0,W*61
$GPGGA,113023.466,3844.279,N,00908.309,W,1,12,1.0,0.0,M,0.0,M,,*76
$GPGSA,A,3,01,02,03,04,05,06,07,08,09,10,11,12,1.0,1.0,1.0*30
$GPRMC,113023.466,A,3844.279,N,00908.309,W,000.2,267.3,220123,000.0,W*60
$GPGGA,113024.466,3844.279,N,00908.309,W,1,12,1.0,0.0,M,0.0,M,,*71
$GPGSA,A,3,01,02,03,04,05,06,07,08,09,10,11,12,1.0,1.0,1.0*30
$GPRMC,113024.466,A,3844.279,N,00908.309,W,000.2,267.3,220123,000.0,W*67
$GPGGA,113025.466,3844.279,N,00908.310,W,1,12,1.0,0.0,M,0.0,M,,*78
$GPGSA,A,3,01,02,03,04,05,06,07,08,09,10,11,12,1.0,1.0,1.0*30
$GPRMC,113025.466,A,3844.279,N,00908.310,W,000.2,267.3,220123,000.0,W*6E
$GPGGA,113026.466,3844.279,N,00908.310,W,1,12,1.0,0.0,M,0.0,M,,*7B
$GPGSA,A,3,01,02,03,04,05,06,07,08,09,10,11,12,1.0,1.0,1.0*30
$GPRMC,113026.466,A,3844.279,N,00908.310,W,000.2,267.3,220123,000.0,W*6D
$GPGGA,113027.466,3844.279,N,00908.310,W,1,12,1.0,0.0,M,0.0,M,,*7A
$GPGSA,A,3,01,02,03,04,05,06,07,08,09,10,11,12,1.0,1.0,1.0*30
$GPRMC,113027.466,A,3844.279,N,00908.310,W,000.2,267.3,220123,000.0,W*6C
$GPGGA,113028.466,3844.279,N,00908.310,W,1,12,1.0,0.0,M,0.0,M,,*75
$GPGSA,A,3,01,02,03,04,05,06,07,08,09,10,11,12,1.0,1.0,1.0*30
$GPRMC,113028.466,A,3844.279,N,00908.310,W,000.2,267.3,220123,000.0,W*63
$GPGGA,113029.466,3844.279,N,00908.310,W,1,12,1.0,0.0,M,0.0,M,,*74
$GPGSA,A,3,01,02,03,04,05,06,07,08,09,10,11,12,1.0,1.0,1.0*30
$GPRMC,113029.466,A,3844.279,N,00908.310,W,000.2,267.3,220123,000.0,W*62
$GPGGA,113030.466,3844.279,N,00908.310,W,1,12,1.0,0.0,M,0.0,M,,*7C
$GPGSA,A,3,01,02,03,04,05,06,07,08,09,10,11,12,1.0,1.0,1.0*30
$GPRMC,113030.466,A,3844.279,N,00908.310,W,000.2,267.3,220123,000.0,W*6A
$GPGGA,113031.466,3844.279,N,00908.310,W,1,12,1.0,0.0,M,0.0,M,,*7D
$GPGSA,A,3,01,02,03,04,05,06,07,08,09,10,11,12,1.0,1.0,1.0*30
$GPRMC,113031.466,A,3844.279,N,00908.310,W,000.2,267.3,220123,000.0,W*6B
$GPGGA,113032.466,3844.279,N,00908.310,W,1,12,1.0,0.0,M,0.0,M,,*7E
$GPGSA,A,3,01,02,03,04,05,06,07,08,09,10,11,12,1.0,1.0,1.0*30
$GPRMC,113032.466,A,3844.279,N,00908.310,W,000.2,267.3,220123,000.0,W*68
$GPGGA,113033.466,3844.279,N,00908.310,W,1,12,1.0,0.0,M,0.0,M,,*7F
$GPGSA,A,3,01,02,03,04,05,06,07,08,09,10,11,12,1.0,1.0,1.0*30
$GPRMC,113033.466,A,3844.279,N,00908.310,W,000.2,267.3,220123,000.0,W*69
$GPGGA,113034.466,3844.279,N,00908.310,W,1,12,1.0,0.0,M,0.0,M,,*78
$GPGSA,A,3,01,02,03,04,05,06,07,08,09,10,11,12,1.0,1.0,1.0*30
$GPRMC,113034.466,A,3844.279,N,00908.310,W,000.2,267.3,220123,000.0,W*6E
$GPGGA,113035.466,3844.279,N,00908.310,W,1,12,1.0,0.0,M,0.0,M,,*79
$GPGSA,A,3,01,02,03,04,05,06,07,08,09,10,11,12,1.0,1.0,1.0*30
$GPRMC,113035.466,A,3844.279,N,00908.310,W,000.2,267.3,220123,000.0,W*6F
$GPGGA,113036.466,3844.279,N,00908.310,W,1,12,1.0,0.0,M,0.0,M,,*7A
$GPGSA,A,3,01,02,03,04,05,06,07,08,09,10,11,12,1.0,1.0,1.0*30
$GPRMC,113036.466,A,3844.279,N,00908.310,W,000.2,267.3,220123,000.0,W*6C
$GPGGA,113037.466,3844.279,N,00908.310,W,1,12,1.0,0.0,M,0.0,M,,*7B
$GPGSA,A,3,01,02,03,04,05,06,07,08,09,10,11,12,1.0,1.0,1.0*30
$GPRMC,113037.466,A,3844.279,N,00908.310,W,000.2,267.3,220123,000.0,W*6D
$GPGGA,113038.466,3844.279,N,00908.310,W,1,12,1.0,0.0,M,0.0,M,,*74
$GPGSA,A,3,01,02,03,04,05,06,07,08,09,10,11,12,1.0,1.0,1.0*30
$GPRMC,113038.466,A,3844.279,N,00908.310,W,000.2,267.3,220123,000.0,W*62
$GPGGA,113039.466,3844.279,N,00908.310,W,1,12,1.0,0.0,M,0.0,M,,*75
$GPGSA,A,3,01,02,03,04,05,06,07,08,09,10,11,12,1.0,1.0,1.0*30
$GPRMC,113039.466,A,3844.279,N,00908.310,W,000.2,267.3,220123,000.0,W*63
$GPGGA,113040.466,3844.279,N,00908.311,W,1,12,1.0,0.0,M,0.0,M,,*7A
$GPGSA,A,3,01,02,03,04,05,06,07,08,09,10,11,12,1.0,1.0,1.0*30
$GPRMC,113040.466,A,3844.279,N,00908.311,W,000.2,267.3,220123,000.0,W*6C
$GPGGA,113041.466,3844.279,N,00908.311,W,1,12,1.0,0.0,M,0.0,M,,*7B
$GPGSA,A,3,01,02,03,04,05,06,07,08,09,10,11,12,1.0,1.0,1.0*30
$GPRMC,113041.466,A,3844.279,N,00908.311,W,000.2,267.3,220123,000.0,W*6D
$GPGGA,113042.466,3844.279,N,00908.311,W,1,12,1.0,0.0,M,0.0,M,,*78
$GPGSA,A,3,01,02,03,04,05,06,07,08,09,10,11,12,1.0,1.0,1.0*30
$GPRMC,113042.466,A,3844.279,N,00908.311,W,000.2,267.3,220123,000.0,W*6E
$GPGGA,113043.466,3844.279,N,00908.311,W,1,12,1.0,0.0,M,0.0,M,,*79
$GPGSA,A,3,01,02,03,04,05,06,07,08,09,10,11,12,1.0,1.0,1.0*30
$GPRMC,113043.466,A,3844.279,N,00908.311,W,000.2,267.3,220123,000.0,W*6F
$GPGGA,113044.466,3844.279,N,00908.311,W,1,12,1.0,0.0,M,0.0,M,,*7E
$GPGSA,A,3,01,02,03,04,05,06,07,08,09,10,11,12,1.0,1.0,1.0*30
$GPRMC,113044.466,A,3844.279,N,00908.311,W,000.2,267.3,220123,000.0,W*68
$GPGGA,113045.466,3844.279,N,00908.311,W,1,12,1.0,0.0,M,0.0,M,,*7F
$GPGSA,A,3,01,02,03,04,05,06,07,08,09,10,11,12,1.0,1.0,1.0*30
$GPRMC,113045.466,A,3844.279,N,00908.311,W,000.2,267.3,220123,000.0,W*69
$GPGGA,113046.466,3844.279,N,00908.311,W,1,12,1.0,0.0,M,0.0,M,,*7C
$GPGSA,A,3,01,02,03,04,05,06,07,08,09,10,11,12,1.0,1.0,1.0*30
$GPRMC,113046.466,A,3844.279,N,00908.311,W,000.2,267.3,220123,000.0,W*6A
$GPGGA,113047.466,3844.279,N,00908.311,W,1,12,1.0,0.0,M,0.0,M,,*7D
$GPGSA,A,3,01,02,03,04,05,06,07,08,09,10,11,12,1.0,1.0,1.0*30
$GPRMC,113047.466,A,3844.279,N,00908.311,W,000.2,267.3,220123,000.0,W*6B
$GPGGA,113048.466,3844.279,N,00908.311,W,1,12,1.0,0.0,M,0.0,M,,*72
$GPGSA,A,3,01,02,03,04,05,06,07,08,09,10,11,12,1.0,1.0,1.0*30
$GPRMC,113048.466,A,3844.279,N,00908.311,W,000.2,267.3,220123,000.0,W*64
$GPGGA,113049.466,3844.279,N,00908.311,W,1,12,1.0,0.0,M,0.0,M,,*73
$GPGSA,A,3,01,02,03,04,05,06,07,08,09,10,11,12,1.0,1.0,1.0*30
$GPRMC,113049.466,A,3844.279,N,00908.311,W,000.2,267.3,220123,000.0,W*65
$GPGGA,113050.466,3844.279,N,00908.311,W,1,12,1.0,0.0,M,0.0,M,,*7B
$GPGSA,A,3,01,02,03,04,05,06,07,08,09,10,11,12,1.0,1.0,1.0*30
$GPRMC,113050.466,A,3844.279,N,00908.311,W,000.2,267.3,220123,000.0,W*6D
$GPGGA,113051.466,3844.279,N,00908.311,W,1,12,1.0,0.0,M,0.0,M,,*7A
$GPGSA,A,3,01,02,03,04,05,06,07,08,09,10,11,12,1.0,1.0,1.0*30
$GPRMC,113051.466,A,3844.279,N,00908.311,W,000.2,267.3,220123,000.0,W*6C
$GPGGA,113052.466,3844.279,N,00908.311,W,1,12,1.0,0.0,M,0.0,M,,*79
$GPGSA,A,3,01,02,03,04,05,06,07,08,09,10,11,12,1.0,1.0,1.0*30
$GPRMC,113052.466,A,3844.279,N,00908.311,W,000.2,267.3,220123,000.0,W*6F
$GPGGA,113053.466,3844.279,N,00908.311,W,1,12,1.0,0.0,M,0.0,M,,*78
$GPGSA,A,3,01,02,03,04,05,06,07,08,09,10,11,12,1.0,1.0,1.0*30
$GPRMC,113053.466,A,3844.279,N,00908.311,W,000.2,267.3,220123,000.0,W*6E
$GPGGA,113054.466,3844.279,N,00908.312,W,1,12,1.0,0.0,M,0.0,M,,*7C
$GPGSA,A,3,01,02,03,04,05,06,07,08,09,10,11,12,1.0,1.0,1.0*30
$GPRMC,113054.466,A,3844.279,N,00908.312,W,000.2,267.3,220123,000.0,W*6A
$GPGGA,113055.466,3844.279,N,00908.312,W,1,12,1.0,0.0,M,0.0,M,,*7D
$GPGSA,A,3,01,02,03,04,05,06,07,08,09,10,11,12,1.0,1.0,1.0*30
$GPRMC,113055.466,A,3844.279,N,00908.312,W,000.2,267.3,220123,000.0,W*6B
$GPGGA,113056.466,3844.279,N,00908.312,W,1,12,1.0,0.0,M,0.0,M,,*7E
$GPGSA,A,3,01,02,03,04,05,06,07,08,09,10,11,12,1.0,1.0,1.0*30
$GPRMC,113056.466,A,3844.279,N,00908.312,W,000.2,267.3,220123,000.0,W*68
$GPGGA,113057.466,3844.279,N,00908.312,W,1,12,1.0,0.0,M,0.0,M,,*7F
$GPGSA,A,3,01,02,03,04,05,06,07,08,09,10,11,12,1.0,1.0,1.0*30
$GPRMC,113057.466,A,3844.279,N,00908.312,W,000.2,267.3,220123,000.0,W*69
$GPGGA,113058.466,3844.279,N,00908.312,W,1,12,1.0,0.0,M,0.0,M,,*70
$GPGSA,A,3,01,02,03,04,05,06,07,08,09,10,11,12,1.0,1.0,1.0*30
$GPRMC,113058.466,A,3844.279,N,00908.312,W,000.2,267.3,220123,000.0,W*66
$GPGGA,113059.466,3844.279,N,00908.312,W,1,12,1.0,0.0,M,0.0,M,,*71
$GPGSA,A,3,01,02,03,04,05,06,07,08,09,10,11,12,1.0,1.0,1.0*30
$GPRMC,113059.466,A,3844.279,N,00908.312,W,000.2,267.3,220123,000.0,W*67
$GPGGA,113100.466,3844.279,N,00908.312,W,1,12,1.0,0.0,M,0.0,M,,*7C
$GPGSA,A,3,01,02,03,04,05,06,07,08,09,10,11,12,1.0,1.0,1.0*30
$GPRMC,113100.466,A,3844.279,N,00908.312,W,000.2,267.3,220123,000.0,W*6A
$GPGGA,113101.466,3844.279,N,00908.312,W,1,12,1.0,0.0,M,0.0,M,,*7D
$GPGSA,A,3,01,02,03,04,05,06,07,08,09,10,11,12,1.0,1.0,1.0*30
$GPRMC,113101.466,A,3844.279,N,00908.312,W,000.2,267.3,220123,000.0,W*6B
$GPGGA,113102.466,3844.279,N,00908.312,W,1,12,1.0,0.0,M,0.0,M,,*7E
$GPGSA,A,3,01,02,03,04,05,06,07,08,09,10,11,12,1.0,1.0,1.0*30
$GPRMC,113102.466,A,3844.279,N,00908.312,W,000.2,267.3,220123,000.0,W*68
$GPGGA,113103.466,3844.279,N,00908.312,W,1,12,1.0,0.0,M,0.0,M,,*7F
$GPGSA,A,3,01,02,03,04,05,06,07,08,09,10,11,12,1.0,1.0,1.0*30
$GPRMC,113103.466,A,3844.279,N,00908.312,W,000.2,267.3,220123,000.0,W*69
$GPGGA,113104.466,3844.279,N,00908.312,W,1,12,1.0,0.0,M,0.0,M,,*78
$GPGSA,A,3,01,02,03,04,05,06,07,08,09,10,11,12,1.0,1.0,1.0*30
$GPRMC,113104.466,A,3844.279,N,00908.312,W,000.2,267.3,220123,000.0,W*6E
$GPGGA,113105.466,3844.279,N,00908.312,W,1,12,1.0,0.0,M,0.0,M,,*79
$GPGSA,A,3,01,02,03,04,05,06,07,08,09,10,11,12,1.0,1.0,1.0*30
$GPRMC,113105.466,A,3844.279,N,00908.312,W,000.2,267.3,220123,000.0,W*6F
$GPGGA,113106.466,3844.279,N,00908.312,W,1,12,1.0,0.0,M,0.0,M,,*7A
$GPGSA,A,3,01,02,03,04,05,06,07,08,09,10,11,12,1.0,1.0,1.0*30
$GPRMC,113106.466,A,3844.279,N,00908.312,W,000.2,267.3,220123,000.0,W*6C
$GPGGA,113107.466,3844.279,N,00908.312,W,1,12,1.0,0.0,M,0.0,M,,*7B
$GPGSA,A,3,01,02,03,04,05,06,07,08,09,10,11,12,1.0,1.0,1.0*30
$GPRMC,113107.466,A,3844.279,N,00908.312,W,000.2,267.3,220123,000.0,W*6D
$GPGGA,113108.466,3844.279,N,00908.312,W,1,12,1.0,0.0,M,0.0,M,,*74
$GPGSA,A,3,01,02,03,04,05,06,07,08,09,10,11,12,1.0,1.0,1.0*30
$GPRMC,113108.466,A,3844.279,N,00908.312,W,000.2,267.3,220123,000.0,W*62
$GPGGA,113109.466,3844.279,N,00908.313,W,1,12,1.0,0.0,M,0.0,M,,*74
$GPGSA,A,3,01,02,03,04,05,06,07,08,09,10,11,12,1.0,1.0,1.0*30
$GPRMC,113109.466,A,3844.279,N,00908.313,W,000.2,267.3,220123,000.0,W*62
$GPGGA,113110.466,3844.279,N,00908.313,W,1,12,1.0,0.0,M,0.0,M,,*7C
$GPGSA,A,3,01,02,03,04,05,06,07,08,09,10,11,12,1.0,1.0,1.0*30
$GPRMC,113110.466,A,3844.279,N,00908.313,W,000.2,267.3,220123,000.0,W*6A
$GPGGA,113111.466,3844.279,N,00908.313,W,1,12,1.0,0.0,M,0.0,M,,*7D
$GPGSA,A,3,01,02,03,04,05,06,07,08,09,10,11,12,1.0,1.0,1.0*30
$GPRMC,113111.466,A,3844.279,N,00908.313,W,000.2,267.3,220123,000.0,W*6B
$GPGGA,113112.466,3844.279,N,00908.313,W,1,12,1.0,0.0,M,0.0,M,,*7E
$GPGSA,A,3,01,02,03,04,05,06,07,08,09,10,11,12,1.0,1.0,1.0*30
$GPRMC,113112.466,A,3844.279,N,00908.313,W,000.2,267.3,220123,000.0,W*68
$GPGGA,113113.466,3844.279,N,00908.313,W,1,12,1.0,0.0,M,0.0,M,,*7F
$GPGSA,A,3,01,02,03,04,05,06,07,08,09,10,11,12,1.0,1.0,1.0*30
$GPRMC,113113.466,A,3844.279,N,00908.313,W,000.2,267.3,220123,000.0,W*69
$GPGGA,113114.466,3844.279,N,00908.313,W,1,12,1.0,0.0,M,0.0,M,,*78
$GPGSA,A,3,01,02,03,04,05,06,07,08,09,10,11,12,1.0,1.0,1.0*30
$GPRMC,113114.466,A,3844.279,N,00908.313,W,000.2,267.3,220123,000.0,W*6E
$GPGGA,113115.466,3844.279,N,00908.313,W,1,12,1.0,0.0,M,0.0,M,,*79
$GPGSA,A,3,01,02,03,04,05,06,07,08,09,10,11,12,1.0,1.0,1.0*30
$GPRMC,113115.466,A,3844.279,N,00908.313,W,000.2,267.3,220123,000.0,W*6F
$GPGGA,113116.466,3844.279,N,00908.313,W,1,12,1.0,0.0,M,0.0,M,,*7A
$GPGSA,A,3,01,02,03,04,05,06,07,08,09,10,11,12,1.0,1.0,1.0*30
$GPRMC,113116.466,A,3844.279,N,00908.313,W,000.2,267.3,220123,000.0,W*6C
$GPGGA,113117.466,3844.279,N,00908.313,W,1,12,1.0,0.0,M,0.0,M,,*7B
$GPGSA,A,3,01,02,03,04,05,06,07,08,09,10,11,12,1.0,1.0,1.0*30
$GPRMC,113117.466,A,3844.279,N,00908.313,W,000.2,267.3,220123,000.0,W*6D
$GPGGA,113118.466,3844.279,N,00908.313,W,1,12,1.0,0.0,M,0.0,M,,*74
$GPGSA,A,3,01,02,03,04,05,06,07,08,09,10,11,12,1.0,1.0,1.0*30
$GPRMC,113118.466,A,3844.279,N,00908.313,W,000.2,267.3,220123,000.0,W*62
$GPGGA,113119.466,3844.279,N,00908.313,W,1,12,1.0,0.0,M,0.0,M,,*75
$GPGSA,A,3,01,02,03,04,05,06,07,08,09,10,11,12,1.0,1.0,1.0*30
$GPRMC,113119.466,A,3844.279,N,00908.313,W,000.2,267.3,220123,000.0,W*63
$GPGGA,113120.466,3844.279,N,00908.313,W,1,12,1.0,0.0,M,0.0,M,,*7F
$GPGSA,A,3,01,02,03,04,05,06,07,08,09,10,11,12,1.0,1.0,1.0*30
$GPRMC,113120.466,A,3844.279,N,00908.313,W,000.2,267.3,220123,000.0,W*69
$GPGGA,113121.466,3844.279,N,00908.313,W,1,12,1.0,0.0,M,0.0,M,,*7E
$GPGSA,A,3,01,02,03,04,05,06,07,08,09,10,11,12,1.0,1.0,1.0*30
$GPRMC,113121.466,A,3844.279,N,00908.313,W,000.2,267.3,220123,000.0,W*68
$GPGGA,113122.466,3844.279,N,00908.313,W,1,12,1.0,0.0,M,0.0,M,,*7D
$GPGSA,A,3,01,02,03,04,05,06,07,08,09,10,11,12,1.0,1.0,1.0*30
$GPRMC,113122.466,A,3844.279,N,00908.313,W,000.2,267.3,220123,000.0,W*6B
$GPGGA,113123.466,3844.279,N,00908.314,W,1,12,1.0,0.0,M,0.0,M,,*7B
$GPGSA,A,3,01,02,03,04,05,06,07,08,09,10,11,12,1.0,1.0,1.0*30
$GPRMC,113123.466,A,3844.279,N,00908.314,W,000.2,267.3,220123,000.0,W*6D
$GPGGA,113124.466,3844.279,N,00908.314,W,1,12,1.0,0.0,M,0.0,M,,*7C
$GPGSA,A,3,01,02,03,04,05,06,07,08,09,10,11,12,1.0,1.0,1.0*30
$GPRMC,113124.466,A,3844.279,N,00908.314,W,000.2,267.3,220123,000.0,W*6A
$GPGGA,113125.466,3844.279,N,00908.314,W,1,12,1.0,0.0,M,0.0,M,,*7D
$GPGSA,A,3,01,02,03,04,05,06,07,08,09,10,11,12,1.0,1.0,1.0*30
$GPRMC,113125.466,A,3844.279,N,00908.314,W,000.2,267.3,220123,000.0,W*6B
$GPGGA,113126.466,3844.279,N,00908.314,W,1,12,1.0,0.0,M,0.0,M,,*7E
$GPGSA,A,3,01,02,03,04,05,06,07,08,09,10,11,12,1.0,1.0,1.0*30
$GPRMC,113126.466,A,3844.279,N,00908.314,W,000.2,267.3,220123,000.0,W*68
$GPGGA,113127.466,3844.279,N,00908.314,W,1,12,1.0,0.0,M,0.0,M,,*7F
$GPGSA,A,3,01,02,03,04,05,06,07,08,09,10,11,12,1.0,1.0,1.0*30
$GPRMC,113127.466,A,3844.279,N,00908.314,W,000.2,267.3,220123,000.0,W*69
$GPGGA,113128.466,3844.279,N,00908.314,W,1,12,1.0,0.0,M,0.0,M,,*70
$GPGSA,A,3,01,02,03,04,05,06,07,08,09,10,11,12,1.0,1.0,1.0*30
$GPRMC,113128.466,A,3844.279,N,00908.314,W,000.2,267.3,220123,000.0,W*66
$GPGGA,113129.466,3844.279,N,00908.314,W,1,12,1.0,0.0,M,0.0,M,,*71
$GPGSA,A,3,01,02,03,04,05,06,07,08,09,10,11,12,1.0,1.0,1.0*30
$GPRMC,113129.466,A,3844.279,N,00908.314,W,000.2,267.3,220123,000.0,W*67
$GPGGA,113130.466,3844.279,N,00908.314,W,1,12,1.0,0.0,M,0.0,M,,*79
$GPGSA,A,3,01,02,03,04,05,06,07,08,09,10,11,12,1.0,1.0,1.0*30
$GPRMC,113130.466,A,3844.279,N,00908.314,W,000.2,267.3,220123,000.0,W*6F
$GPGGA,113131.466,3844.279,N,00908.314,W,1,12,1.0,0.0,M,0.0,M,,*78
$GPGSA,A,3,01,02,03,04,05,06,07,08,09,10,11,12,1.0,1.0,1.0*30
$GPRMC,113131.466,A,3844.279,N,00908.314,W,000.2,267.3,220123,000.0,W*6E
$GPGGA,113132.466,3844.279,N,00908.314,W,1,12,1.0,0.0,M,0.0,M,,*7B
$GPGSA,A,3,01,02,03,04,05,06,07,08,09,10,11,12,1.0,1.0,1.0*30
$GPRMC,113132.466,A,3844.279,N,00908.314,W,000.2,267.3,220123,000.0,W*6D
$GPGGA,113133.466,3844.279,N,00908.314,W,1,12,1.0,0.0,M,0.0,M,,*7A
$GPGSA,A,3,01,02,03,04,05,06,07,08,09,10,11,12,1.0,1.0,1.0*30
$GPRMC,113133.466,A,3844.279,N,00908.314,W,000.2,267.3,220123,000.0,W*6C
$GPGGA,113134.466,3844.279,N,00908.314,W,1,12,1.0,0.0,M,0.0,M,,*7D
$GPGSA,A,3,01,02,03,04,05,06,07,08,09,10,11,12,1.0,1.0,1.0*30
$GPRMC,113134.466,A,3844.279,N,00908.314,W,000.2,267.3,220123,000.0,W*6B
$GPGGA,113135.466,3844.279,N,00908.314,W,1,12,1.0,0.0,M,0.0,M,,*7C
$GPGSA,A,3,01,02,03,04,05,06,07,08,09,10,11,12,1.0,1.0,1.0*30
$GPRMC,113135.466,A,3844.279,N,00908.314,W,000.2,267.3,220123,000.0,W*6A
$GPGGA,113136.466,3844.279,N,00908.314,W,1,12,1.0,0.0,M,0.0,M,,*7F
$GPGSA,A,3,01,02,03,04,05,06,07,08,09,10,11,12,1.0,1.0,1.0*30
$GPRMC,113136.466,A,3844.279,N,00908.314,W,000.2,267.3,220123,000.0,W*69
$GPGGA,113137.466,3844.279,N,00908.314,W,1,12,1.0,0.0,M,0.0,M,,*7E
$GPGSA,A,3,01,02,03,04,05,06,07,08,09,10,11,12,1.0,1.0,1.0*30
$GPRMC,113137.466,A,3844.279,N,00908.314,W,000.2,267.3,220123,000.0,W*68
$GPGGA,113138.466,3844.279,N,00908.315,W,1,12,1.0,0.0,M,0.0,M,,*70
$GPGSA,A,3,01,02,03,04,05,06,07,08,09,10,11,12,1.0,1.0,1.0*30
$GPRMC,113138.466,A,3844.279,N,00908.315,W,000.2,267.3,220123,000.0,W*66
$GPGGA,113139.466,3844.279,N,00908.315,W,1,12,1.0,0.0,M,0.0,M,,*71
$GPGSA,A,3,01,02,03,04,05,06,07,08,09,10,11,12,1.0,1.0,1.0*30
$GPRMC,113139.466,A,3844.279,N,00908.315,W,000.2,267.3,220123,000.0,W*67
$GPGGA,113140.466,3844.279,N,00908.315,W,1,12,1.0,0.0,M,0.0,M,,*7F
$GPGSA,A,3,01,02,03,04,05,06,07,08,09,10,11,12,1.0,1.0,1.0*30
$GPRMC,113140.466,A,3844.279,N,00908.315,W,000.2,267.3,220123,000.0,W*69
$GPGGA,113141.466,3844.279,N,00908.315,W,1,12,1.0,0.0,M,0.0,M,,*7E
$GPGSA,A,3,01,02,03,04,05,06,07,08,09,10,11,12,1.0,1.0,1.0*30
$GPRMC,113141.466,A,3844.279,N,00908.315,W,000.2,267.3,220123,000.0,W*68
$GPGGA,113142.466,3844.279,N,00908.315,W,1,12,1.0,0.0,M,0.0,M,,*7D
$GPGSA,A,3,01,02,03,04,05,06,07,08,09,10,11,12,1.0,1.0,1.0*30
$GPRMC,113142.466,A,3844.279,N,00908.315,W,000.2,267.3,220123,000.0,W*6B
$GPGGA,113143.466,3844.279,N,00908.315,W,1,12,1.0,0.0,M,0.0,M,,*7C
$GPGSA,A,3,01,02,03,04,05,06,07,08,09,10,11,12,1.0,1.0,1.0*30
$GPRMC,113143.466,A,3844.279,N,00908.315,W,000.2,267.3,220123,000.0,W*6A
$GPGGA,113144.466,3844.279,N,00908.315,W,1,12,1.0,0.0,M,0.0,M,,*7B
$GPGSA,A,3,01,02,03,04,05,06,07,08,09,10,11,12,1.0,1.0,1.0*30
$GPRMC,113144.466,A,3844.279,N,00908.315,W,000.2,267.3,220123,000.0,W*6D
$GPGGA,113145.466,3844.279,N,00908.315,W,1,12,1.0,0.0,M,0.0,M,,*7A
$GPGSA,A,3,01,02,03,04,05,06,07,08,09,10,11,12,1.0,1.0,1.0*30
$GPRMC,113145.466,A,3844.279,N,00908.315,W,000.2,267.3,220123,000.0,W*6C
$GPGGA,113146.466,3844.279,N,00908.315,W,1,12,1.0,0.0,M,0.0,M,,*79
$GPGSA,A,3,01,02,03,04,05,06,07,08,09,10,11,12,1.0,1.0,1.0*30
$GPRMC,113146.466,A,3844.279,N,00908.315,W,000.2,267.3,220123,000.0,W*6F
$GPGGA,113147.466,3844.279,N,00908.315,W,1,12,1.0,0.0,M,0.0,M,,*78
$GPGSA,A,3,01,02,03,04,05,06,07,08,09,10,11,12,1.0,1.0,1.0*30
$GPRMC,113147.466,A,3844.279,N,00908.315,W,000.2,267.3,220123,000.0,W*6E
$GPGGA,113148.466,3844.279,N,00908.315,W,1,12,1.0,0.0,M,0.0,M,,*77
$GPGSA,A,3,01,02,03,04,05,06,07,08,09,10,11,12,1.0,1.0,1.0*30
$GPRMC,113148.466,A,3844.279,N,00908.315,W,000.2,267.3,220123,000.0,W*61
$GPGGA,113149.466,3844.279,N,00908.315,W,1,12,1.0,0.0,M,0.0,M,,*76
$GPGSA,A,3,01,02,03,04,05,06,07,08,09,10,11,12,1.0,1.0,1.0*30
$GPRMC,113149.466,A,3844.279,N,00908.315,W,000.2,267.3,220123,000.0,W*60
$GPGGA,113150.466,3844.279,N,00908.315,W,1,12,1.0,0.0,M,0.0,M,,*7E
$GPGSA,A,3,01,02,03,04,05,06,07,08,09,10,11,12,1.0,1.0,1.0*30
$GPRMC,113150.466,A,3844.279,N,00908.315,W,000.2,267.3,220123,000.0,W*68
$GPGGA,113151.466,3844.279,N,00908.315,W,1,12,1.0,0.0,M,0.0,M,,*7F
$GPGSA,A,3,01,02,03,04,05,06,07,08,09,10,11,12,1.0,1.0,1.0*30
$GPRMC,113151.466,A,3844.279,N,00908.315,W,000.2,267.3,220123,000.0,W*69
$GPGGA,113152.466,3844.279,N,00908.316,W,1,12,1.0,0.0,M,0.0,M,,*7F
$GPGSA,A,3,01,02,03,04,05,06,07,08,09,10,11,12,1.0,1.0,1.0*30
$GPRMC,113152.466,A,3844.279,N,00908.316,W,000.2,267.3,220123,000.0,W*69
$GPGGA,113153.466,3844.279,N,00908.316,W,1,12,1.0,0.0,M,0.0,M,,*7E
$GPGSA,A,3,01,02,03,04,05,06,07,08,09,10,11,12,1.0,1.0,1.0*30
$GPRMC,113153.466,A,3844.279,N,00908.316,W,000.2,267.3,220123,000.0,W*68
$GPGGA,113154.466,3844.279,N,00908.316,W,1,12,1.0,0.0,M,0.0,M,,*79
$GPGSA,A,3,01,02,03,04,05,06,07,08,09,10,11,12,1.0,1.0,1.0*30
$GPRMC,113154.466,A,3844.279,N,00908.316,W,000.2,267.3,220123,000.0,W*6F
$GPGGA,113155.466,3844.279,N,00908.316,W,1,12,1.0,0.0,M,0.0,M,,*78
$GPGSA,A,3,01,02,03,04,05,06,07,08,09,10,11,12,1.0,1.0,1.0*30
$GPRMC,113155.466,A,3844.279,N,00908.316,W,000.2,267.3,220123,000.0,W*6E
$GPGGA,113156.466,3844.279,N,00908.316,W,1,12,1.0,0.0,M,0.0,M,,*7B
$GPGSA,A,3,01,02,03,04,05,06,07,08,09,10,11,12,1.0,1.0,1.0*30
$GPRMC,113156.466,A,3844.279,N,00908.316,W,000.2,267.3,220123,000.0,W*6D
$GPGGA,113157.466,3844.279,N,00908.316,W,1,12,1.0,0.0,M,0.0,M,,*7A
$GPGSA,A,3,01,02,03,04,05,06,07,08,09,10,11,12,1.0,1.0,1.0*30
$GPRMC,113157.466,A,3844.279,N,00908.316,W,000.2,267.3,220123,000.0,W*6C
$GPGGA,113158.466,3844.279,N,00908.316,W,1,12,1.0,0.0,M,0.0,M,,*75
$GPGSA,A,3,01,02,03,04,05,06,07,08,09,10,11,12,1.0,1.0,1.0*30
$GPRMC,113158.466,A,3844.279,N,00908.316,W,000.2,267.3,220123,000.0,W*63
$GPGGA,113159.466,3844.279,N,00908.316,W,1,12,1.0,0.0,M,0.0,M,,*74
$GPGSA,A,3,01,02,03,04,05,06,07,08,09,10,11,12,1.0,1.0,1.0*30
$GPRMC,113159.466,A,3844.279,N,00908.316,W,000.2,267.3,220123,000.0,W*62
$GPGGA,113200.466,3844.279,N,00908.316,W,1,12,1.0,0.0,M,0.0,M,,*7B
$GPGSA,A,3,01,02,03,04,05,06,07,08,09,10,11,12,1.0,1.0,1.0*30
$GPRMC,113200.466,A,3844.279,N,00908.316,W,000.2,267.3,220123,000.0,W*6D
$GPGGA,113201.466,3844.279,N,00908.316,W,1,12,1.0,0.0,M,0.0,M,,*7A
$GPGSA,A,3,01,02,03,04,05,06,07,08,09,10,11,12,1.0,1.0,1.0*30
$GPRMC,113201.466,A,3844.279,N,00908.316,W,000.2,267.3,220123,000.0,W*6C
$GPGGA,113202.466,3844.279,N,00908.316,W,1,12,1.0,0.0,M,0.0,M,,*79
$GPGSA,A,3,01,02,03,04,05,06,07,08,09,10,11,12,1.0,1.0,1.0*30
$GPRMC,113202.466,A,3844.279,N,00908.316,W,000.2,267.3,220123,000.0,W*6F
$GPGGA,113203.466,3844.279,N,00908.316,W,1,12,1.0,0.0,M,0.0,M,,*78
$GPGSA,A,3,01,02,03,04,05,06,07,08,09,10,11,12,1.0,1.0,1.0*30
$GPRMC,113203.466,A,3844.279,N,00908.316,W,000.2,267.3,220123,000.0,W*6E
$GPGGA,113204.466,3844.279,N,00908.316,W,1,12,1.0,0.0,M,0.0,M,,*7F
$GPGSA,A,3,01,02,03,04,05,06,07,08,09,10,11,12,1.0,1.0,1.0*30
$GPRMC,113204.466,A,3844.279,N,00908.316,W,000.2,267.3,220123,000.0,W*69
$GPGGA,113205.466,3844.279,N,00908.316,W,1,12,1.0,0.0,M,0.0,M,,*7E
$GPGSA,A,3,01,02,03,04,05,06,07,08,09,10,11,12,1.0,1.0,1.0*30
$GPRMC,113205.466,A,3844.279,N,00908.316,W,000.2,267.3,220123,000.0,W*68
$GPGGA,113206.466,3844.279,N,00908.316,W,1,12,1.0,0.0,M,0.0,M,,*7D
$GPGSA,A,3,01,02,03,04,05,06,07,08,09,10,11,12,1.0,1.0,1.0*30
$GPRMC,113206.466,A,3844.279,N,00908.316,W,000.2,267.3,220123,000.0,W*6B
$GPGGA,113207.466,3844.279,N,00908.317,W,1,12,1.0,0.0,M,0.0,M,,*7D
$GPGSA,A,3,01,02,03,04,05,06,07,08,09,10,11,12,1.0,1.0,1.0*30
$GPRMC,113207.466,A,3844.279,N,00908.317,W,000.2,267.3,220123,000.0,W*6B
$GPGGA,113208.466,3844.279,N,00908.317,W,1,12,1.0,0.0,M,0.0,M,,*72
$GPGSA,A,3,01,02,03,04,05,06,07,08,09,10,11,12,1.0,1.0,1.0*30
$GPRMC,113208.466,A,3844.279,N,00908.317,W,000.2,267.3,220123,000.0,W*64
$GPGGA,113209.466,3844.279,N,00908.317,W,1,12,1.0,0.0,M,0.0,M,,*73
$GPGSA,A,3,01,02,03,04,05,06,07,08,09,10,11,12,1.0,1.0,1.0*30
$GPRMC,113209.466,A,3844.279,N,00908.317,W,000.2,267.3,220123,000.0,W*65
$GPGGA,113210.466,3844.279,N,00908.317,W,1,12,1.0,0.0,M,0.0,M,,*7B
$GPGSA,A,3,01,02,03,04,05,06,07,08,09,10,11,12,1.0,1.0,1.0*30
$GPRMC,113210.466,A,3844.279,N,00908.317,W,000.2,267.3,220123,000.0,W*6D
$GPGGA,113211.466,3844.279,N,00908.317,W,1,12,1.0,0.0,M,0.0,M,,*7A
$GPGSA,A,3,01,02,03,04,05,06,07,08,09,10,11,12,1.0,1.0,1.0*30
$GPRMC,113211.466,A,3844.279,N,00908.317,W,000.2,267.3,220123,000.0,W*6C
$GPGGA,113212.466,3844.279,N,00908.317,W,1,12,1.0,0.0,M,0.0,M,,*79
$GPGSA,A,3,01,02,03,04,05,06,07,08,09,10,11,12,1.0,1.0,1.0*30
$GPRMC,113212.466,A,3844.279,N,00908.317,W,000.2,267.3,220123,000.0,W*6F
$GPGGA,113213.466,3844.279,N,00908.317,W,1,12,1.0,0.0,M,0.0,M,,*78
$GPGSA,A,3,01,02,03,04,05,06,07,08,09,10,11,12,1.0,1.0,1.0*30
$GPRMC,113213.466,A,3844.279,N,00908.317,W,000.2,267.3,220123,000.0,W*6E
$GPGGA,113214.466,3844.279,N,00908.317,W,1,12,1.0,0.0,M,0.0,M,,*7F
$GPGSA,A,3,01,02,03,04,05,06,07,08,09,10,11,12,1.0,1.0,1.0*30
$GPRMC,113214.466,A,3844.279,N,00908.317,W,000.2,267.3,220123,000.0,W*69
$GPGGA,113215.466,3844.279,N,00908.317,W,1,12,1.0,0.0,M,0.0,M,,*7E
$GPGSA,A,3,01,02,03,04,05,06,07,08,09,10,11,12,1.0,1.0,1.0*30
$GPRMC,113215.466,A,3844.279,N,00908.317,W,000.2,267.3,220123,000.0,W*68
$GPGGA,113216.466,3844.279,N,00908.317,W,1,12,1.0,0.0,M,0.0,M,,*7D
$GPGSA,A,3,01,02,03,04,05,06,07,08,09,10,11,12,1.0,1.0,1.0*30
$GPRMC,113216.466,A,3844.279,N,00908.317,W,000.2,267.3,220123,000.0,W*6B
$GPGGA,113217.466,3844.279,N,00908.317,W,1,12,1.0,0.0,M,0.0,M,,*7C
$GPGSA,A,3,01,02,03,04,05,06,07,08,09,10,11,12,1.0,1.0,1.0*30
$GPRMC,113217.466,A,3844.279,N,00908.317,W,000.2,267.3,220123,000.0,W*6A
$GPGGA,113218.466,3844.279,N,00908.317,W,1,12,1.0,0.0,M,0.0,M,,*73
$GPGSA,A,3,01,02,03,04,05,06,07,08,09,10,11,12,1.0,1.0,1.0*30
$GPRMC,113218.466,A,3844.279,N,00908.317,W,000.2,267.3,220123,000.0,W*65
$GPGGA,113219.466,3844.279,N,00908.317,W,1,12,1.0,0.0,M,0.0,M,,*72
$GPGSA,A,3,01,02,03,04,05,06,07,08,09,10,11,12,1.0,1.0,1.0*30
$GPRMC,113219.466,A,3844.279,N,00908.317,W,000.2,267.3,220123,000.0,W*64
$GPGGA,113220.466,3844.279,N,00908.317,W,1,12,1.0,0.0,M,0.0,M,,*78
$GPGSA,A,3,01,02,03,04,05,06,07,08,09,10,11,12,1.0,1.0,1.0*30
$GPRMC,113220.466,A,3844.279,N,00908.317,W,000.2,267.3,220123,000.0,W*6E
$GPGGA,113221.466,3844.279,N,00908.318,W,1,12,1.0,0.0,M,0.0,M,,*76
$GPGSA,A,3,01,02,03,04,05,06,07,08,09,10,11,12,1.0,1.0,1.0*30
$GPRMC,113221.466,A,3844.279,N,00908.318,W,000.2,267.3,220123,000.0,W*60
$GPGGA,113222.466,3844.279,N,00908.318,W,1,12,1.0,0.0,M,0.0,M,,*75
$GPGSA,A,3,01,02,03,04,05,06,07,08,09,10,11,12,1.0,1.0,1.0*30
$GPRMC,113222.466,A,3844.279,N,00908.318,W,000.2,267.3,220123,000.0,W*63
$GPGGA,113223.466,3844.279,N,00908.318,W,1,12,1.0,0.0,M,0.0,M,,*74
$GPGSA,A,3,01,02,03,04,05,06,07,08,09,10,11,12,1.0,1.0,1.0*30
$GPRMC,113223.466,A,3844.279,N,00908.318,W,000.2,267.3,220123,000.0,W*62
$GPGGA,113224.466,3844.279,N,00908.318,W,1,12,1.0,0.0,M,0.0,M,,*73
$GPGSA,A,3,01,02,03,04,05,06,07,08,09,10,11,12,1.0,1.0,1.0*30
$GPRMC,113224.466,A,3844.279,N,00908.318,W,000.2,267.3,220123,000.0,W*65
$GPGGA,113225.466,3844.279,N,00908.318,W,1,12,1.0,0.0,M,0.0,M,,*72
$GPGSA,A,3,01,02,03,04,05,06,07,08,09,10,11,12,1.0,1.0,1.0*30
$GPRMC,113225.466,A,3844.279,N,00908.318,W,000.2,267.3,220123,000.0,W*64
$GPGGA,113226.466,3844.279,N,00908.318,W,1,12,1.0,0.0,M,0.0,M,,*71
$GPGSA,A,3,01,02,03,04,05,06,07,08,09,10,11,12,1.0,1.0,1.0*30
$GPRMC,113226.466,A,3844.279,N,00908.318,W,000.2,267.3,220123,000.0,W*67
$GPGGA,113227.466,3844.279,N,00908.318,W,1,12,1.0,0.0,M,0.0,M,,*70
$GPGSA,A,3,01,02,03,04,05,06,07,08,09,10,11,12,1.0,1.0,1.0*30
$GPRMC,113227.466,A,3844.279,N,00908.318,W,000.2,267.3,220123,000.0,W*66
$GPGGA,113228.466,3844.279,N,00908.318,W,1,12,1.0,0.0,M,0.0,M,,*7F
$GPGSA,A,3,01,02,03,04,05,06,07,08,09,10,11,12,1.0,1.0,1.0*30
$GPRMC,113228.466,A,3844.279,N,00908.318,W,000.2,267.3,220123,000.0,W*69
$GPGGA,113229.466,3844.279,N,00908.318,W,1,12,1.0,0.0,M,0.0,M,,*7E
$GPGSA,A,3,01,02,03,04,05,06,07,08,09,10,11,12,1.0,1.0,1.0*30
$GPRMC,113229.466,A,3844.279,N,00908.318,W,000.2,267.3,220123,000.0,W*68
$GPGGA,113230.466,3844.279,N,00908.318,W,1,12,1.0,0.0,M,0.0,M,,*76
$GPGSA,A,3,01,02,03,04,05,06,07,08,09,10,11,12,1.0,1.0,1.0*30
$GPRMC,113230.466,A,3844.279,N,00908.318,W,000.2,267.3,220123,000.0,W*60
$GPGGA,113231.466,3844.279,N,00908.318,W,1,12,1.0,0.0,M,0.0,M,,*77
$GPGSA,A,3,01,02,03,04,05,06,07,08,09,10,11,12,1.0,1.0,1.0*30
$GPRMC,113231.466,A,3844.279,N,00908.318,W,000.2,267.3,220123,000.0,W*61
$GPGGA,113232.466,3844.279,N,00908.318,W,1,12,1.0,0.0,M,0.0,M,,*74
$GPGSA,A,3,01,02,03,04,05,06,07,08,09,10,11,12,1.0,1.0,1.0*30
$GPRMC,113232.466,A,3844.279,N,00908.318,W,000.2,267.3,220123,000.0,W*62
$GPGGA,113233.466,3844.279,N,00908.318,W,1,12,1.0,0.0,M,0.0,M,,*75
$GPGSA,A,3,01,02,03,04,05,06,07,08,09,10,11,12,1.0,1.0,1.0*30
$GPRMC,113233.466,A,3844.279,N,00908.318,W,000.2,267.3,220123,000.0,W*63
$GPGGA,113234.466,3844.279,N,00908.318,W,1,12,1.0,0.0,M,0.0,M,,*72
$GPGSA,A,3,01,02,03,04,05,06,07,08,09,10,11,12,1.0,1.0,1.0*30
$GPRMC,113234.466,A,3844.279,N,00908.318,W,000.2,267.3,220123,000.0,W*64
$GPGGA,113235.466,3844.279,N,00908.318,W,1,12,1.0,0.0,M,0.0,M,,*73
$GPGSA,A,3,01,02,03,04,05,06,07,08,09,10,11,12,1.0,1.0,1.0*30
$GPRMC,113235.466,A,3844.279,N,00908.318,W,000.2,267.3,220123,000.0,W*65
$GPGGA,113236.466,3844.279,N,00908.319,W,1,12,1.0,0.0,M,0.0,M,,*71
$GPGSA,A,3,01,02,03,04,05,06,07,08,09,10,11,12,1.0,1.0,1.0*30
$GPRMC,113236.466,A,3844.279,N,00908.319,W,000.2,267.3,220123,000.0,W*67
$GPGGA,113237.466,3844.279,N,00908.319,W,1,12,1.0,0.0,M,0.0,M,,*70
$GPGSA,A,3,01,02,03,04,05,06,07,08,09,10,11,12,1.0,1.0,1.0*30
$GPRMC,113237.466,A,3844.279,N,00908.319,W,000.2,267.3,220123,000.0,W*66
$GPGGA,113238.466,3844.279,N,00908.319,W,1,12,1.0,0.0,M,0.0,M,,*7F
$GPGSA,A,3,01,02,03,04,05,06,07,08,09,10,11,12,1.0,1.0,1.0*30
$GPRMC,113238.466,A,3844.279,N,00908.319,W,000.2,267.3,220123,000.0,W*69
$GPGGA,113239.466,3844.279,N,00908.319,W,1,12,1.0,0.0,M,0.0,M,,*7E
$GPGSA,A,3,01,02,03,04,05,06,07,08,09,10,11,12,1.0,1.0,1.0*30
$GPRMC,113239.466,A,3844.279,N,00908.319,W,000.2,267.3,220123,000.0,W*68
$GPGGA,113240.466,3844.279,N,00908.319,W,1,12,1.0,0.0,M,0.0,M,,*70
$GPGSA,A,3,01,02,03,04,05,06,07,08,09,10,11,12,1.0,1.0,1.0*30
$GPRMC,113240.466,A,3844.279,N,00908.319,W,000.2,267.3,220123,000.0,W*66
$GPGGA,113241.466,3844.279,N,00908.319,W,1,12,1.0,0.0,M,0.0,M,,*71
$GPGSA,A,3,01,02,03,04,05,06,07,08,09,10,11,12,1.0,1.0,1.0*30
$GPRMC,113241.466,A,3844.279,N,00908.319,W,000.2,267.3,220123,000.0,W*67
$GPGGA,113242.466,3844.279,N,00908.319,W,1,12,1.0,0.0,M,0.0,M,,*72
$GPGSA,A,3,01,02,03,04,05,06,07,08,09,10,11,12,1.0,1.0,1.0*30
$GPRMC,113242.466,A,3844.279,N,00908.319,W,000.2,267.3,220123,000.0,W*64
$GPGGA,113243.466,3844.279,N,00908.319,W,1,12,1.0,0.0,M,0.0,M,,*73
$GPGSA,A,3,01,02,03,04,05,06,07,08,09,10,11,12,1.0,1.0,1.0*30
$GPRMC,113243.466,A,3844.279,N,00908.319,W,000.2,267.3,220123,000.0,W*65
$GPGGA,113244.466,3844.279,N,00908.319,W,1,12,1.0,0.0,M,0.0,M,,*74
$GPGSA,A,3,01,02,03,04,05,06,07,08,09,10,11,12,1.0,1.0,1.0*30
$GPRMC,113244.466,A,3844.279,N,00908.319,W,000.2,267.3,220123,000.0,W*62
$GPGGA,113245.466,3844.279,N,00908.319,W,1,12,1.0,0.0,M,0.0,M,,*75
$GPGSA,A,3,01,02,03,04,05,06,07,08,09,10,11,12,1.0,1.0,1.0*30
$GPRMC,113245.466,A,3844.279,N,00908.319,W,000.2,267.3,220123,000.0,W*63
$GPGGA,113246.466,3844.279,N,00908.319,W,1,12,1.0,0.0,M,0.0,M,,*76
$GPGSA,A,3,01,02,03,04,05,06,07,08,09,10,11,12,1.0,1.0,1.0*30
$GPRMC,113246.466,A,3844.279,N,00908.319,W,000.2,267.3,220123,000.0,W*60
$GPGGA,113247.466,3844.279,N,00908.319,W,1,12,1.0,0.0,M,0.0,M,,*77
$GPGSA,A,3,01,02,03,04,05,06,07,08,09,10,11,12,1.0,1.0,1.0*30
$GPRMC,113247.466,A,3844.279,N,00908.319,W,000.2,267.3,220123,000.0,W*61
$GPGGA,113248.466,3844.279,N,00908.319,W,1,12,1.0,0.0,M,0.0,M,,*78
$GPGSA,A,3,01,02,03,04,05,06,07,08,09,10,11,12,1.0,1.0,1.0*30
$GPRMC,113248.466,A,3844.279,N,00908.319,W,000.2,267.3,220123,000.0,W*6E
$GPGGA,113249.466,3844.279,N,00908.319,W,1,12,1.0,0.0,M,0.0,M,,*79
$GPGSA,A,3,01,02,03,04,05,06,07,08,09,10,11,12,1.0,1.0,1.0*30
$GPRMC,113249.466,A,3844.279,N,00908.319,W,000.2,267.3,220123,000.0,W*6F
$GPGGA,113250.466,3844.279,N,00908.320,W,1,12,1.0,0.0,M,0.0,M,,*7B
$GPGSA,A,3,01,02,03,04,05,06,07,08,09,10,11,12,1.0,1.0,1.0*30
$GPRMC,113250.466,A,3844.279,N,00908.320,W,000.2,267.3,220123,000.0,W*6D
$GPGGA,113251.466,3844.279,N,00908.320,W,1,12,1.0,0.0,M,0.0,M,,*7A
$GPGSA,A,3,01,02,03,04,05,06,07,08,09,10,11,12,1.0,1.0,1.0*30
$GPRMC,113251.466,A,3844.279,N,00908.320,W,000.2,267.3,220123,000.0,W*6C
$GPGGA,113252.466,3844.279,N,00908.320,W,1,12,1.0,0.0,M,0.0,M,,*79
$GPGSA,A,3,01,02,03,04,05,06,07,08,09,10,11,12,1.0,1.0,1.0*30
$GPRMC,113252.466,A,3844.279,N,00908.320,W,000.2,267.3,220123,000.0,W*6F
$GPGGA,113253.466,3844.279,N,00908.320,W,1,12,1.0,0.0,M,0.0,M,,*78
$GPGSA,A,3,01,02,03,04,05,06,07,08,09,10,11,12,1.0,1.0,1.0*30
$GPRMC,113253.466,A,3844.279,N,00908.320,W,000.2,267.3,220123,000.0,W*6E
$GPGGA,113254.466,3844.279,N,00908.320,W,1,12,1.0,0.0,M,0.0,M,,*7F
$GPGSA,A,3,01,02,03,04,05,06,07,08,09,10,11,12,1.0,1.0,1.0*30
$GPRMC,113254.466,A,3844.279,N,00908.320,W,000.2,267.3,220123,000.0,W*69
$GPGGA,113255.466,3844.279,N,00908.320,W,1,12,1.0,0.0,M,0.0,M,,*7E
$GPGSA,A,3,01,02,03,04,05,06,07,08,09,10,11,12,1.0,1.0,1.0*30
$GPRMC,113255.466,A,3844.279,N,00908.320,W,000.2,267.3,220123,000.0,W*68
$GPGGA,113256.466,3844.279,N,00908.320,W,1,12,1.0,0.0,M,0.0,M,,*7D
$GPGSA,A,3,01,02,03,04,05,06,07,08,09,10,11,12,1.0,1.0,1.0*30
$GPRMC,113256.466,A,3844.279,N,00908.320,W,000.2,267.3,220123,000.0,W*6B
$GPGGA,113257.466,3844.278,N,00908.320,W,1,12,1.0,0.0,M,0.0,M,,*7D
$GPGSA,A,3,01,02,03,04,05,06,07,08,09,10,11,12,1.0,1.0,1.0*30
$GPRMC,113257.466,A,3844.278,N,00908.320,W,000.2,267.3,220123,000.0,W*6B
$GPGGA,113258.466,3844.278,N,00908.320,W,1,12,1.0,0.0,M,0.0,M,,*72
$GPGSA,A,3,01,02,03,04,05,06,07,08,09,10,11,12,1.0,1.0,1.0*30
$GPRMC,113258.466,A,3844.278,N,00908.320,W,000.2,267.3,220123,000.0,W*64
$GPGGA,113259.466,3844.278,N,00908.320,W,1,12,1.0,0.0,M,0.0,M,,*73
$GPGSA,A,3,01,02,03,04,05,06,07,08,09,10,11,12,1.0,1.0,1.0*30
$GPRMC,113259.466,A,3844.278,N,00908.320,W,000.2,267.3,220123,000.0,W*65
$GPGGA,113300.466,3844.278,N,00908.320,W,1,12,1.0,0.0,M,0.0,M,,*7E
$GPGSA,A,3,01,02,03,04,05,06,07,08,09,10,11,12,1.0,1.0,1.0*30
$GPRMC,113300.466,A,3844.278,N,00908.320,W,000.2,267.3,220123,000.0,W*68
$GPGGA,113301.466,3844.278,N,00908.320,W,1,12,1.0,0.0,M,0.0,M,,*7F
$GPGSA,A,3,01,02,03,04,05,06,07,08,09,10,11,12,1.0,1.0,1.0*30
$GPRMC,113301.466,A,3844.278,N,00908.320,W,000.2,267.3,220123,000.0,W*69
$GPGGA,113302.466,3844.278,N,00908.320,W,1,12,1.0,0.0,M,0.0,M,,*7C
$GPGSA,A,3,01,02,03,04,05,06,07,08,09,10,11,12,1.0,1.0,1.0*30
$GPRMC,113302.466,A,3844.278,N,00908.320,W,000.2,267.3,220123,000.0,W*6A
$GPGGA,113303.466,3844.278,N,00908.320,W,1,12,1.0,0.0,M,0.0,M,,*7D
$GPGSA,A,3,01,02,03,04,05,06,07,08,09,10,11,12,1.0,1.0,1.0*30
$GPRMC,113303.466,A,3844.278,N,00908.320,W,000.2,267.3,220123,000.0,W*6B
$GPGGA,113304.466,3844.278,N,00908.320,W,1,12,1.0,0.0,M,0.0,M,,*7A
$GPGSA,A,3,01,02,03,04,05,06,07,08,09,10,11,12,1.0,1.0,1.0*30
$GPRMC,113304.466,A,3844.278,N,00908.320,W,000.2,267.3,220123,000.0,W*6C
$GPGGA,113305.466,3844.278,N,00908.321,W,1,12,1.0,0.0,M,0.0,M,,*7A
$GPGSA,A,3,01,02,03,04,05,06,07,08,09,10,11,12,1.0,1.0,1.0*30
$GPRMC,113305.466,A,3844.278,N,00908.321,W,000.2,267.3,220123,000.0,W*6C
$GPGGA,113306.466,3844.278,N,00908.321,W,1,12,1.0,0.0,M,0.0,M,,*79
$GPGSA,A,3,01,02,03,04,05,06,07,08,09,10,11,12,1.0,1.0,1.0*30
$GPRMC,113306.466,A,3844.278,N,00908.321,W,000.2,267.3,220123,000.0,W*6F
$GPGGA,113307.466,3844.278,N,00908.321,W,1,12,1.0,0.0,M,0.0,M,,*78
$GPGSA,A,3,01,02,03,04,05,06,07,08,09,10,11,12,1.0,1.0,1.0*30
$GPRMC,113307.466,A,3844.278,N,00908.321,W,000.2,267.3,220123,000.0,W*6E
$GPGGA,113308.466,3844.278,N,00908.321,W,1,12,1.0,0.0,M,0.0,M,,*77
$GPGSA,A,3,01,02,03,04,05,06,07,08,09,10,11,12,1.0,1.0,1.0*30
$GPRMC,113308.466,A,3844.278,N,00908.321,W,000.2,267.3,220123,000.0,W*61
$GPGGA,113309.466,3844.278,N,00908.321,W,1,12,1.0,0.0,M,0.0,M,,*76
$GPGSA,A,3,01,02,03,04,05,06,07,08,09,10,11,12,1.0,1.0,1.0*30
$GPRMC,113309.466,A,3844.278,N,00908.321,W,000.2,267.3,220123,000.0,W*60
$GPGGA,113310.466,3844.278,N,00908.321,W,1,12,1.0,0.0,M,0.0,M,,*7E
$GPGSA,A,3,01,02,03,04,05,06,07,08,09,10,11,12,1.0,1.0,1.0*30
$GPRMC,113310.466,A,3844.278,N,00908.321,W,000.2,267.3,220123,000.0,W*68
$GPGGA,113311.466,3844.278,N,00908.321,W,1,12,1.0,0.0,M,0.0,M,,*7F
$GPGSA,A,3,01,02,03,04,05,06,07,08,09,10,11,12,1.0,1.0,1.0*30
$GPRMC,113311.466,A,3844.278,N,00908.321,W,000.2,267.3,220123,000.0,W*69
$GPGGA,113312.466,3844.278,N,00908.321,W,1,12,1.0,0.0,M,0.0,M,,*7C
$GPGSA,A,3,01,02,03,04,05,06,07,08,09,10,11,12,1.0,1.0,1.0*30
$GPRMC,113312.466,A,3844.278,N,00908.321,W,000.2,267.3,220123,000.0,W*6A
$GPGGA,113313.466,3844.278,N,00908.321,W,1,12,1.0,0.0,M,0.0,M,,*7D
$GPGSA,A,3,01,02,03,04,05,06,07,08,09,10,11,12,1.0,1.0,1.0*30
$GPRMC,113313.466,A,3844.278,N,00908.321,W,000.2,267.3,220123,000.0,W*6B
$GPGGA,113314.466,3844.278,N,00908.321,W,1,12,1.0,0.0,M,0.0,M,,*7A
$GPGSA,A,3,01,02,03,04,05,06,07,08,09,10,11,12,1.0,1.0,1.0*30
$GPRMC,113314.466,A,3844.278,N,00908.321,W,000.2,267.3,220123,000.0,W*6C
$GPGGA,113315.466,3844.278,N,00908.321,W,1,12,1.0,0.0,M,0.0,M,,*7B
$GPGSA,A,3,01,02,03,04,05,06,07,08,09,10,11,12,1.0,1.0,1.0*30
$GPRMC,113315.466,A,3844.278,N,00908.321,W,000.2,267.3,220123,000.0,W*6D
$GPGGA,113316.466,3844.278,N,00908.321,W,1,12,1.0,0.0,M,0.0,M,,*78
$GPGSA,A,3,01,02,03,04,05,06,07,08,09,10,11,12,1.0,1.0,1.0*30
$GPRMC,113316.466,A,3844.278,N,00908.321,W,000.2,267.3,220123,000.0,W*6E
$GPGGA,113317.466,3844.278,N,00908.321,W,1,12,1.0,0.0,M,0.0,M,,*79
$GPGSA,A,3,01,02,03,04,05,06,07,08,09,10,11,12,1.0,1.0,1.0*30
$GPRMC,113317.466,A,3844.278,N,00908.321,W,000.2,267.3,220123,000.0,W*6F
$GPGGA,113318.466,3844.278,N,00908.321,W,1,12,1.0,0.0,M,0.0,M,,*76
$GPGSA,A,3,01,02,03,04,05,06,07,08,09,10,11,12,1.0,1.0,1.0*30
$GPRMC,113318.466,A,3844.278,N,00908.321,W,000.2,267.3,220123,000.0,W*60
$GPGGA,113319.466,3844.278,N,00908.322,W,1,12,1.0,0.0,M,0.0,M,,*74
$GPGSA,A,3,01,02,03,04,05,06,07,08,09,10,11,12,1.0,1.0,1.0*30
$GPRMC,113319.466,A,3844.278,N,00908.322,W,000.2,267.3,220123,000.0,W*62
$GPGGA,113320.466,3844.278,N,00908.322,W,1,12,1.0,0.0,M,0.0,M,,*7E
$GPGSA,A,3,01,02,03,04,05,06,07,08,09,10,11,12,1.0,1.0,1.0*30
$GPRMC,113320.466,A,3844.278,N,00908.322,W,000.2,267.3,220123,000.0,W*68
$GPGGA,113321.466,3844.278,N,00908.322,W,1,12,1.0,0.0,M,0.0,M,,*7F
$GPGSA,A,3,01,02,03,04,05,06,07,08,09,10,11,12,1.0,1.0,1.0*30
$GPRMC,113321.466,A,3844.278,N,00908.322,W,000.2,267.3,220123,000.0,W*69
$GPGGA,113322.466,3844.278,N,00908.322,W,1,12,1.0,0.0,M,0.0,M,,*7C
$GPGSA,A,3,01,02,03,04,05,06,07,08,09,10,11,12,1.0,1.0,1.0*30
$GPRMC,113322.466,A,3844.278,N,00908.322,W,000.2,267.3,220123,000.0,W*6A
$GPGGA,113323.466,3844.278,N,00908.322,W,1,12,1.0,0.0,M,0.0,M,,*7D
$GPGSA,A,3,01,02,03,04,05,06,07,08,09,10,11,12,1.0,1.0,1.0*30
$GPRMC,113323.466,A,3844.278,N,00908.322,W,000.2,267.3,220123,000.0,W*6B
$GPGGA,113324.466,3844.278,N,00908.322,W,1,12,1.0,0.0,M,0.0,M,,*7A
$GPGSA,A,3,01,02,03,04,05,06,07,08,09,10,11,12,1.0,1.0,1.0*30
$GPRMC,113324.466,A,3844.278,N,00908.322,W,000.2,267.3,220123,000.0,W*6C
$GPGGA,113325.466,3844.278,N,00908.322,W,1,12,1.0,0.0,M,0.0,M,,*7B
$GPGSA,A,3,01,02,03,04,05,06,07,08,09,10,11,12,1.0,1.0,1.0*30
$GPRMC,113325.466,A,3844.278,N,00908.322,W,000.2,267.3,220123,000.0,W*6D
$GPGGA,113326.466,3844.278,N,00908.322,W,1,12,1.0,0.0,M,0.0,M,,*78
$GPGSA,A,3,01,02,03,04,05,06,07,08,09,10,11,12,1.0,1.0,1.0*30
$GPRMC,113326.466,A,3844.278,N,00908.322,W,000.2,267.3,220123,000.0,W*6E
$GPGGA,113327.466,3844.278,N,00908.322,W,1,12,1.0,0.0,M,0.0,M,,*79
$GPGSA,A,3,01,02,03,04,05,06,07,08,09,10,11,12,1.0,1.0,1.0*30
$GPRMC,113327.466,A,3844.278,N,00908.322,W,000.2,267.3,220123,000.0,W*6F
$GPGGA,113328.466,3844.278,N,00908.322,W,1,12,1.0,0.0,M,0.0,M,,*76
$GPGSA,A,3,01,02,03,04,05,06,07,08,09,10,11,12,1.0,1.0,1.0*30
$GPRMC,113328.466,A,3844.278,N,00908.322,W,000.2,267.3,220123,000.0,W*60
$GPGGA,113329.466,3844.278,N,00908.322,W,1,12,1.0,0.0,M,0.0,M,,*77
$GPGSA,A,3,01,02,03,04,05,06,07,08,09,10,11,12,1.0,1.0,1.0*30
$GPRMC,113329.466,A,3844.278,N,00908.322,W,000.2,267.3,220123,000.0,W*61
$GPGGA,113330.466,3844.278,N,00908.322,W,1,12,1.0,0.0,M,0.0,M,,*7F
$GPGSA,A,3,01,02,03,04,05,06,07,08,09,10,11,12,1.0,1.0,1.0*30
$GPRMC,113330.466,A,3844.278,N,00908.322,W,000.2,267.3,220123,000.0,W*69
$GPGGA,113331.466,3844.278,N,00908.322,W,1,12,1.0,0.0,M,0.0,M,,*7E
$GPGSA,A,3,01,02,03,04,05,06,07,08,09,10,11,12,1.0,1.0,1.0*30
$GPRMC,113331.466,A,3844.278,N,00908.322,W,000.2,267.3,220123,000.0,W*68
$GPGGA,113332.466,3844.278,N,00908.322,W,1,12,1.0,0.0,M,0.0,M,,*7D
$GPGSA,A,3,01,02,03,04,05,06,07,08,09,10,11,12,1.0,1.0,1.0*30
$GPRMC,113332.466,A,3844.278,N,00908.322,W,000.2,267.3,220123,000.0,W*6B
$GPGGA,113333.466,3844.278,N,00908.322,W,1,12,1.0,0.0,M,0.0,M,,*7C
$GPGSA,A,3,01,02,03,04,05,06,07,08,09,10,11,12,1.0,1.0,1.0*30
$GPRMC,113333.466,A,3844.278,N,00908.322,W,000.2,267.3,220123,000.0,W*6A
$GPGGA,113334.466,3844.278,N,00908.323,W,1,12,1.0,0.0,M,0.0,M,,*7A
$GPGSA,A,3,01,02,03,04,05,06,07,08,09,10,11,12,1.0,1.0,1.0*30
$GPRMC,113334.466,A,3844.278,N,00908.323,W,000.2,267.3,220123,000.0,W*6C
$GPGGA,113335.466,3844.278,N,00908.323,W,1,12,1.0,0.0,M,0.0,M,,*7B
$GPGSA,A,3,01,02,03,04,05,06,07,08,09,10,11,12,1.0,1.0,1.0*30
$GPRMC,113335.466,A,3844.278,N,00908.323,W,000.2,267.3,220123,000.0,W*6D
$GPGGA,113336.466,3844.278,N,00908.323,W,1,12,1.0,0.0,M,0.0,M,,*78
$GPGSA,A,3,01,02,03,04,05,06,07,08,09,10,11,12,1.0,1.0,1.0*30
$GPRMC,113336.466,A,3844.278,N,00908.323,W,000.2,267.3,220123,000.0,W*6E
$GPGGA,113337.466,3844.278,N,00908.323,W,1,12,1.0,0.0,M,0.0,M,,*79
$GPGSA,A,3,01,02,03,04,05,06,07,08,09,10,11,12,1.0,1.0,1.0*30
$GPRMC,113337.466,A,3844.278,N,00908.323,W,000.2,267.3,220123,000.0,W*6F
$GPGGA,113338.466,3844.278,N,00908.323,W,1,12,1.0,0.0,M,0.0,M,,*76
$GPGSA,A,3,01,02,03,04,05,06,07,08,09,10,11,12,1.0,1.0,1.0*30
$GPRMC,113338.466,A,3844.278,N,00908.323,W,000.2,267.3,220123,000.0,W*60
$GPGGA,113339.466,3844.278,N,00908.323,W,1,12,1.0,0.0,M,0.0,M,,*77
$GPGSA,A,3,01,02,03,04,05,06,07,08,09,10,11,12,1.0,1.0,1.0*30
$GPRMC,113339.466,A,3844.278,N,00908.323,W,000.2,267.3,220123,000.0,W*61
$GPGGA,113340.466,3844.278,N,00908.323,W,1,12,1.0,0.0,M,0.0,M,,*79
$GPGSA,A,3,01,02,03,04,05,06,07,08,09,10,11,12,1.0,1.0,1.0*30
$GPRMC,113340.466,A,3844.278,N,00908.323,W,000.2,267.3,220123,000.0,W*6F
$GPGGA,113341.466,3844.278,N,00908.323,W,1,12,1.0,0.0,M,0.0,M,,*78
$GPGSA,A,3,01,02,03,04,05,06,07,08,09,10,11,12,1.0,1.0,1.0*30
$GPRMC,113341.466,A,3844.278,N,00908.323,W,000.2,267.3,220123,000.0,W*6E
$GPGGA,113342.466,3844.278,N,00908.323,W,1,12,1.0,0.0,M,0.0,M,,*7B
$GPGSA,A,3,01,02,03,04,05,06,07,08,09,10,11,12,1.0,1.0,1.0*30
$GPRMC,113342.466,A,3844.278,N,00908.323,W,000.2,267.3,220123,000.0,W*6D
$GPGGA,113343.466,3844.278,N,00908.323,W,1,12,1.0,0.0,M,0.0,M,,*7A
$GPGSA,A,3,01,02,03,04,05,06,07,08,09,10,11,12,1.0,1.0,1.0*30
$GPRMC,113343.466,A,3844.278,N,00908.323,W,000.2,267.3,220123,000.0,W*6C
$GPGGA,113344.466,3844.278,N,00908.323,W,1,12,1.0,0.0,M,0.0,M,,*7D
$GPGSA,A,3,01,02,03,04,05,06,07,08,09,10,11,12,1.0,1.0,1.0*30
$GPRMC,113344.466,A,3844.278,N,00908.323,W,000.2,267.3,220123,000.0,W*6B
$GPGGA,113345.466,3844.278,N,00908.323,W,1,12,1.0,0.0,M,0.0,M,,*7C
$GPGSA,A,3,01,02,03,04,05,06,07,08,09,10,11,12,1.0,1.0,1.0*30
$GPRMC,113345.466,A,3844.278,N,00908.323,W,000.2,267.3,220123,000.0,W*6A
$GPGGA,113346.466,3844.278,N,00908.323,W,1,12,1.0,0.0,M,0.0,M,,*7F
$GPGSA,A,3,01,02,03,04,05,06,07,08,09,10,11,12,1.0,1.0,1.0*30
$GPRMC,113346.466,A,3844.278,N,00908.323,W,000.2,267.3,220123,000.0,W*69
$GPGGA,113347.466,3844.278,N,00908.323,W,1,12,1.0,0.0,M,0.0,M,,*7E
$GPGSA,A,3,01,02,03,04,05,06,07,08,09,10,11,12,1.0,1.0,1.0*30
$GPRMC,113347.466,A,3844.278,N,00908.323,W,000.2,267.3,220123,000.0,W*68
$GPGGA,113348.466,3844.278,N,00908.324,W,1,12,1.0,0.0,M,0.0,M,,*76
$GPGSA,A,3,01,02,03,04,05,06,07,08,09,10,11,12,1.0,1.0,1.0*30
$GPRMC,113348.466,A,3844.278,N,00908.324,W,000.2,267.3,220123,000.0,W*60
$GPGGA,113349.466,3844.278,N,00908.324,W,1,12,1.0,0.0,M,0.0,M,,*77
$GPGSA,A,3,01,02,03,04,05,06,07,08,09,10,11,12,1.0,1.0,1.0*30
$GPRMC,113349.466,A,3844.278,N,00908.324,W,000.2,267.3,220123,000.0,W*61
$GPGGA,113350.466,3844.278,N,00908.324,W,1,12,1.0,0.0,M,0.0,M,,*7F
$GPGSA,A,3,01,02,03,04,05,06,07,08,09,10,11,12,1.0,1.0,1.0*30
$GPRMC,113350.466,A,3844.278,N,00908.324,W,000.2,267.3,220123,000.0,W*69
$GPGGA,113351.466,3844.278,N,00908.324,W,1,12,1.0,0.0,M,0.0,M,,*7E
$GPGSA,A,3,01,02,03,04,05,06,07,08,09,10,11,12,1.0,1.0,1.0*30
$GPRMC,113351.466,A,3844.278,N,00908.324,W,000.2,267.3,220123,000.0,W*68
$GPGGA,113352.466,3844.278,N,00908.324,W,1,12,1.0,0.0,M,0.0,M,,*7D
$GPGSA,A,3,01,02,03,04,05,06,07,08,09,10,11,12,1.0,1.0,1.0*30
$GPRMC,113352.466,A,3844.278,N,00908.324,W,000.2,267.3,220123,000.0,W*6B
$GPGGA,113353.466,3844.278,N,00908.324,W,1,12,1.0,0.0,M,0.0,M,,*7C
$GPGSA,A,3,01,02,03,04,05,06,07,08,09,10,11,12,1.0,1.0,1.0*30
$GPRMC,113353.466,A,3844.278,N,00908.324,W,000.2,267.3,220123,000.0,W*6A
$GPGGA,113354.466,3844.278,N,00908.324,W,1,12,1.0,0.0,M,0.0,M,,*7B
$GPGSA,A,3,01,02,03,04,05,06,07,08,09,10,11,12,1.0,1.0,1.0*30
$GPRMC,113354.466,A,3844.278,N,00908.324,W,000.2,267.3,220123,000.0,W*6D
$GPGGA,113355.466,3844.278,N,00908.324,W,1,12,1.0,0.0,M,0.0,M,,*7A
$GPGSA,A,3,01,02,03,04,05,06,07,08,09,10,11,12,1.0,1.0,1.0*30
$GPRMC,113355.466,A,3844.278,N,00908.324,W,000.2,267.3,220123,000.0,W*6C
$GPGGA,113356.466,3844.278,N,00908.324,W,1,12,1.0,0.0,M,0.0,M,,*79
$GPGSA,A,3,01,02,03,04,05,06,07,08,09,10,11,12,1.0,1.0,1.0*30
$GPRMC,113356.466,A,3844.278,N,00908.324,W,000.2,267.3,220123,000.0,W*6F
$GPGGA,113357.466,3844.278,N,00908.324,W,1,12,1.0,0.0,M,0.0,M,,*78
$GPGSA,A,3,01,02,03,04,05,06,07,08,09,10,11,12,1.0,1.0,1.0*30
$GPRMC,113357.466,A,3844.278,N,00908.324,W,000.2,267.3,220123,000.0,W*6E
$GPGGA,113358.466,3844.278,N,00908.324,W,1,12,1.0,0.0,M,0.0,M,,*77
$GPGSA,A,3,01,02,03,04,05,06,07,08,09,10,11,12,1.0,1.0,1.0*30
$GPRMC,113358.466,A,3844.278,N,00908.324,W,000.2,267.3,220123,000.0,W*61
$GPGGA,113359.466,3844.278,N,00908.324,W,1,12,1.0,0.0,M,0.0,M,,*76
$GPGSA,A,3,01,02,03,04,05,06,07,08,09,10,11,12,1.0,1.0,1.0*30
$GPRMC,113359.466,A,3844.278,N,00908.324,W,000.2,267.3,220123,000.0,W*60
$GPGGA,113400.466,3844.278,N,00908.324,W,1,12,1.0,0.0,M,0.0,M,,*7D
$GPGSA,A,3,01,02,03,04,05,06,07,08,09,10,11,12,1.0,1.0,1.0*30
$GPRMC,113400.466,A,3844.278,N,00908.324,W,000.2,267.3,220123,000.0,W*6B
$GPGGA,113401.466,3844.278,N,00908.324,W,1,12,1.0,0.0,M,0.0,M,,*7C
$GPGSA,A,3,01,02,03,04,05,06,07,08,09,10,11,12,1.0,1.0,1.0*30
$GPRMC,113401.466,A,3844.278,N,00908.324,W,000.2,267.3,220123,000.0,W*6A
$GPGGA,113402.466,3844.278,N,00908.324,W,1,12,1.0,0.0,M,0.0,M,,*7F
$GPGSA,A,3,01,02,03,04,05,06,07,08,09,10,11,12,1.0,1.0,1.0*30
$GPRMC,113402.466,A,3844.278,N,00908.324,W,000.2,267.3,220123,000.0,W*69
$GPGGA,113403.466,3844.278,N,00908.325,W,1,12,1.0,0.0,M,0.0,M,,*7F
$GPGSA,A,3,01,02,03,04,05,06,07,08,09,10,11,12,1.0,1.0,1.0*30
$GPRMC,113403.466,A,3844.278,N,00908.325,W,000.2,267.3,220123,000.0,W*69
$GPGGA,113404.466,3844.278,N,00908.325,W,1,12,1.0,0.0,M,0.0,M,,*78
$GPGSA,A,3,01,02,03,04,05,06,07,08,09,10,11,12,1.0,1.0,1.0*30
$GPRMC,113404.466,A,3844.278,N,00908.325,W,000.2,267.3,220123,000.0,W*6E
$GPGGA,113405.466,3844.278,N,00908.325,W,1,12,1.0,0.0,M,0.0,M,,*79
$GPGSA,A,3,01,02,03,04,05,06,07,08,09,10,11,12,1.0,1.0,1.0*30
$GPRMC,113405.466,A,3844.278,N,00908.325,W,000.2,267.3,220123,000.0,W*6F
$GPGGA,113406.466,3844.278,N,00908.325,W,1,12,1.0,0.0,M,0.0,M,,*7A
$GPGSA,A,3,01,02,03,04,05,06,07,08,09,10,11,12,1.0,1.0,1.0*30
$GPRMC,113406.466,A,3844.278,N,00908.325,W,000.2,267.3,220123,000.0,W*6C
$GPGGA,113407.466,3844.278,N,00908.325,W,1,12,1.0,0.0,M,0.0,M,,*7B
$GPGSA,A,3,01,02,03,04,05,06,07,08,09,10,11,12,1.0,1.0,1.0*30
$GPRMC,113407.466,A,3844.278,N,00908.325,W,000.2,267.3,220123,000.0,W*6D
$GPGGA,113408.466,3844.278,N,00908.325,W,1,12,1.0,0.0,M,0.0,M,,*74
$GPGSA,A,3,01,02,03,04,05,06,07,08,09,10,11,12,1.0,1.0,1.0*30
$GPRMC,113408.466,A,3844.278,N,00908.325,W,000.2,267.3,220123,000.0,W*62
$GPGGA,113409.466,3844.278,N,00908.325,W,1,12,1.0,0.0,M,0.0,M,,*75
$GPGSA,A,3,01,02,03,04,05,06,07,08,09,10,11,12,1.0,1.0,1.0*30
$GPRMC,113409.466,A,3844.278,N,00908.325,W,000.2,267.3,220123,000.0,W*63
$GPGGA,113410.466,3844.278,N,00908.325,W,1,12,1.0,0.0,M,0.0,M,,*7D
$GPGSA,A,3,01,02,03,04,05,06,07,08,09,10,11,12,1.0,1.0,1.0*30
$GPRMC,113410.466,A,3844.278,N,00908.325,W,000.2,267.3,220123,000.0,W*6B
$GPGGA,113411.466,3844.278,N,00908.325,W,1,12,1.0,0.0,M,0.0,M,,*7C
$GPGSA,A,3,01,02,03,04,05,06,07,08,09,10,11,12,1.0,1.0,1.0*30
$GPRMC,113411.466,A,3844.278,N,00908.325,W,000.2,267.3,220123,000.0,W*6A
$GPGGA,113412.466,3844.278,N,00908.325,W,1,12,1.0,0.0,M,0.0,M,,*7F
$GPGSA,A,3,01,02,03,04,05,06,07,08,09,10,11,12,1.0,1.0,1.0*30
$GPRMC,113412.466,A,3844.278,N,00908.325,W,000.2,267.3,220123,000.0,W*69
$GPGGA,113413.466,3844.278,N,00908.325,W,1,12,1.0,0.0,M,0.0,M,,*7E
$GPGSA,A,3,01,02,03,04,05,06,07,08,09,10,11,12,1.0,1.0,1.0*30
$GPRMC,113413.466,A,3844.278,N,00908.325,W,000.2,267.3,220123,000.0,W*68
$GPGGA,113414.466,3844.278,N,00908.325,W,1,12,1.0,0.0,M,0.0,M,,*79
$GPGSA,A,3,01,02,03,04,05,06,07,08,09,10,11,12,1.0,1.0,1.0*30
$GPRMC,113414.466,A,3844.278,N,00908.325,W,000.2,267.3,220123,000.0,W*6F
$GPGGA,113415.466,3844.278,N,00908.325,W,1,12,1.0,0.0,M,0.0,M,,*78
$GPGSA,A,3,01,02,03,04,05,06,07,08,09,10,11,12,1.0,1.0,1.0*30
$GPRMC,113415.466,A,3844.278,N,00908.325,W,000.2,267.3,220123,000.0,W*6E
$GPGGA,113416.466,3844.278,N,00908.325,W,1,12,1.0,0.0,M,0.0,M,,*7B
$GPGSA,A,3,01,02,03,04,05,06,07,08,09,10,11,12,1.0,1.0,1.0*30
$GPRMC,113416.466,A,3844.278,N,00908.325,W,000.2,267.3,220123,000.0,W*6D
$GPGGA,113417.466,3844.278,N,00908.326,W,1,12,1.0,0.0,M,0.0,M,,*79
$GPGSA,A,3,01,02,03,04,05,06,07,08,09,10,11,12,1.0,1.0,1.0*30
$GPRMC,113417.466,A,3844.278,N,00908.326,W,000.2,267.3,220123,000.0,W*6F
$GPGGA,113418.466,3844.278,N,00908.326,W,1,12,1.0,0.0,M,0.0,M,,*76
$GPGSA,A,3,01,02,03,04,05,06,07,08,09,10,11,12,1.0,1.0,1.0*30
$GPRMC,113418.466,A,3844.278,N,00908.326,W,000.2,267.3,220123,000.0,W*60
$GPGGA,113419.466,3844.278,N,00908.326,W,1,12,1.0,0.0,M,0.0,M,,*77
$GPGSA,A,3,01,02,03,04,05,06,07,08,09,10,11,12,1.0,1.0,1.0*30
$GPRMC,113419.466,A,3844.278,N,00908.326,W,000.2,267.3,220123,000.0,W*61
$GPGGA,113420.466,3844.278,N,00908.326,W,1,12,1.0,0.0,M,0.0,M,,*7D
$GPGSA,A,3,01,02,03,04,05,06,07,08,09,10,11,12,1.0,1.0,1.0*30
$GPRMC,113420.466,A,3844.278,N,00908.326,W,000.2,267.3,220123,000.0,W*6B
$GPGGA,113421.466,3844.278,N,00908.326,W,1,12,1.0,0.0,M,0.0,M,,*7C
$GPGSA,A,3,01,02,03,04,05,06,07,08,09,10,11,12,1.0,1.0,1.0*30
$GPRMC,113421.466,A,3844.278,N,00908.326,W,000.2,267.3,220123,000.0,W*6A
$GPGGA,113422.466,3844.278,N,00908.326,W,1,12,1.0,0.0,M,0.0,M,,*7F
$GPGSA,A,3,01,02,03,04,05,06,07,08,09,10,11,12,1.0,1.0,1.0*30
$GPRMC,113422.466,A,3844.278,N,00908.326,W,000.2,267.3,220123,000.0,W*69
$GPGGA,113423.466,3844.278,N,00908.326,W,1,12,1.0,0.0,M,0.0,M,,*7E
$GPGSA,A,3,01,02,03,04,05,06,07,08,09,10,11,12,1.0,1.0,1.0*30
$GPRMC,113423.466,A,3844.278,N,00908.326,W,000.2,267.3,220123,000.0,W*68
$GPGGA,113424.466,3844.278,N,00908.326,W,1,12,1.0,0.0,M,0.0,M,,*79
$GPGSA,A,3,01,02,03,04,05,06,07,08,09,10,11,12,1.0,1.0,1.0*30
$GPRMC,113424.466,A,3844.278,N,00908.326,W,000.2,267.3,220123,000.0,W*6F
$GPGGA,113425.466,3844.278,N,00908.326,W,1,12,1.0,0.0,M,0.0,M,,*78
$GPGSA,A,3,01,02,03,04,05,06,07,08,09,10,11,12,1.0,1.0,1.0*30
$GPRMC,113425.466,A,3844.278,N,00908.326,W,000.2,267.3,220123,000.0,W*6E
$GPGGA,113426.466,3844.278,N,00908.326,W,1,12,1.0,0.0,M,0.0,M,,*7B
$GPGSA,A,3,01,02,03,04,05,06,07,08,09,10,11,12,1.0,1.0,1.0*30
$GPRMC,113426.466,A,3844.278,N,00908.326,W,000.2,267.3,220123,000.0,W*6D
$GPGGA,113427.466,3844.278,N,00908.326,W,1,12,1.0,0.0,M,0.0,M,,*7A
$GPGSA,A,3,01,02,03,04,05,06,07,08,09,10,11,12,1.0,1.0,1.0*30
$GPRMC,113427.466,A,3844.278,N,00908.326,W,000.2,267.3,220123,000.0,W*6C
$GPGGA,113428.466,3844.278,N,00908.326,W,1,12,1.0,0.0,M,0.0,M,,*75
$GPGSA,A,3,01,02,03,04,05,06,07,08,09,10,11,12,1.0,1.0,1.0*30
$GPRMC,113428.466,A,3844.278,N,00908.326,W,000.2,267.3,220123,000.0,W*63
$GPGGA,113429.466,3844.278,N,00908.326,W,1,12,1.0,0.0,M,0.0,M,,*74
$GPGSA,A,3,01,02,03,04,05,06,07,08,09,10,11,12,1.0,1.0,1.0*30
$GPRMC,113429.466,A,3844.278,N,00908.326,W,000.2,267.3,220123,000.0,W*62
$GPGGA,113430.466,3844.278,N,00908.326,W,1,12,1.0,0.0,M,0.0,M,,*7C
$GPGSA,A,3,01,02,03,04,05,06,07,08,09,10,11,12,1.0,1.0,1.0*30
$GPRMC,113430.466,A,3844.278,N,00908.326,W,000.2,267.3,220123,000.0,W*6A
$GPGGA,113431.466,3844.278,N,00908.326,W,1,12,1.0,0.0,M,0.0,M,,*7D
$GPGSA,A,3,01,02,03,04,05,06,07,08,09,10,11,12,1.0,1.0,1.0*30
$GPRMC,113431.466,A,3844.278,N,00908.326,W,000.2,267.3,220123,000.0,W*6B
$GPGGA,113432.466,3844.278,N,00908.327,W,1,12,1.0,0.0,M,0.0,M,,*7F
$GPGSA,A,3,01,02,03,04,05,06,07,08,09,10,11,12,1.0,1.0,1.0*30
$GPRMC,113432.466,A,3844.278,N,00908.327,W,000.2,267.3,220123,000.0,W*69
$GPGGA,113433.466,3844.278,N,00908.327,W,1,12,1.0,0.0,M,0.0,M,,*7E
$GPGSA,A,3,01,02,03,04,05,06,07,08,09,10,11,12,1.0,1.0,1.0*30
$GPRMC,113433.466,A,3844.278,N,00908.327,W,000.2,267.3,220123,000.0,W*68
$GPGGA,113434.466,3844.278,N,00908.327,W,1,12,1.0,0.0,M,0.0,M,,*79
$GPGSA,A,3,01,02,03,04,05,06,07,08,09,10,11,12,1.0,1.0,1.0*30
$GPRMC,113434.466,A,3844.278,N,00908.327,W,000.2,267.3,220123,000.0,W*6F
$GPGGA,113435.466,3844.278,N,00908.327,W,1,12,1.0,0.0,M,0.0,M,,*78
$GPGSA,A,3,01,02,03,04,05,06,07,08,09,10,11,12,1.0,1.0,1.0*30
$GPRMC,113435.466,A,3844.278,N,00908.327,W,000.2,267.3,220123,000.0,W*6E
$GPGGA,113436.466,3844.278,N,00908.327,W,1,12,1.0,0.0,M,0.0,M,,*7B
$GPGSA,A,3,01,02,03,04,05,06,07,08,09,10,11,12,1.0,1.0,1.0*30
$GPRMC,113436.466,A,3844.278,N,00908.327,W,000.2,267.3,220123,000.0,W*6D
$GPGGA,113437.466,3844.278,N,00908.327,W,1,12,1.0,0.0,M,0.0,M,,*7A
$GPGSA,A,3,01,02,03,04,05,06,07,08,09,10,11,12,1.0,1.0,1.0*30
$GPRMC,113437.466,A,3844.278,N,00908.327,W,000.2,267.3,220123,000.0,W*6C
$GPGGA,113438.466,3844.278,N,00908.327,W,1,12,1.0,0.0,M,0.0,M,,*75
$GPGSA,A,3,01,02,03,04,05,06,07,08,09,10,11,12,1.0,1.0,1.0*30
$GPRMC,113438.466,A,3844.278,N,00908.327,W,000.2,267.3,220123,000.0,W*63
$GPGGA,113439.466,3844.278,N,00908.327,W,1,12,1.0,0.0,M,0.0,M,,*74
$GPGSA,A,3,01,02,03,04,05,06,07,08,09,10,11,12,1.0,1.0,1.0*30
$GPRMC,113439.466,A,3844.278,N,00908.327,W,000.2,267.3,220123,000.0,W*62
$GPGGA,113440.466,3844.278,N,00908.327,W,1,12,1.0,0.0,M,0.0,M,,*7A
$GPGSA,A,3,01,02,03,04,05,06,07,08,09,10,11,12,1.0,1.0,1.0*30
$GPRMC,113440.466,A,3844.278,N,00908.327,W,000.2,267.3,220123,000.0,W*6C
$GPGGA,113441.466,3844.278,N,00908.327,W,1,12,1.0,0.0,M,0.0,M,,*7B
$GPGSA,A,3,01,02,03,04,05,06,07,08,09,10,11,12,1.0,1.0,1.0*30
$GPRMC,113441.466,A,3844.278,N,00908.327,W,000.2,267.3,220123,000.0,W*6D
$GPGGA,113442.466,3844.278,N,00908.327,W,1,12,1.0,0.0,M,0.0,M,,*78
$GPGSA,A,3,01,02,03,04,05,06,07,08,09,10,11,12,1.0,1.0,1.0*30
$GPRMC,113442.466,A,3844.278,N,00908.327,W,000.2,267.3,220123,000.0,W*6E
$GPGGA,113443.466,3844.278,N,00908.327,W,1,12,1.0,0.0,M,0.0,M,,*79
$GPGSA,A,3,01,02,03,04,05,06,07,08,09,10,11,12,1.0,1.0,1.0*30
$GPRMC,113443.466,A,3844.278,N,00908.327,W,000.2,267.3,220123,000.0,W*6F
$GPGGA,113444.466,3844.278,N,00908.327,W,1,12,1.0,0.0,M,0.0,M,,*7E
$GPGSA,A,3,01,02,03,04,05,06,07,08,09,10,11,12,1.0,1.0,1.0*30
$GPRMC,113444.466,A,3844.278,N,00908.327,W,000.2,267.3,220123,000.0,W*68
$GPGGA,113445.466,3844.278,N,00908.327,W,1,12,1.0,0.0,M,0.0,M,,*7F
$GPGSA,A,3,01,02,03,04,05,06,07,08,09,10,11,12,1.0,1.0,1.0*30
$GPRMC,113445.466,A,3844.278,N,00908.327,W,000.2,267.3,220123,000.0,W*69
$GPGGA,113446.466,3844.278,N,00908.328,W,1,12,1.0,0.0,M,0.0,M,,*73
$GPGSA,A,3,01,02,03,04,05,06,07,08,09,10,11,12,1.0,1.0,1.0*30
$GPRMC,113446.466,A,3844.278,N,00908.328,W,000.2,267.3,220123,000.0,W*65
$GPGGA,113447.466,3844.278,N,00908.328,W,1,12,1.0,0.0,M,0.0,M,,*72
$GPGSA,A,3,01,02,03,04,05,06,07,08,09,10,11,12,1.0,1.0,1.0*30
$GPRMC,113447.466,A,3844.278,N,00908.328,W,000.2,267.3,220123,000.0,W*64
$GPGGA,113448.466,3844.278,N,00908.328,W,1,12,1.0,0.0,M,0.0,M,,*7D
$GPGSA,A,3,01,02,03,04,05,06,07,08,09,10,11,12,1.0,1.0,1.0*30
$GPRMC,113448.466,A,3844.278,N,00908.328,W,000.2,267.3,220123,000.0,W*6B
$GPGGA,113449.466,3844.278,N,00908.328,W,1,12,1.0,0.0,M,0.0,M,,*7C
$GPGSA,A,3,01,02,03,04,05,06,07,08,09,10,11,12,1.0,1.0,1.0*30
$GPRMC,113449.466,A,3844.278,N,00908.328,W,000.2,267.3,220123,000.0,W*6A
$GPGGA,113450.466,3844.278,N,00908.328,W,1,12,1.0,0.0,M,0.0,M,,*74
$GPGSA,A,3,01,02,03,04,05,06,07,08,09,10,11,12,1.0,1.0,1.0*30
$GPRMC,113450.466,A,3844.278,N,00908.328,W,000.2,267.3,220123,000.0,W*62
$GPGGA,113451.466,3844.278,N,00908.328,W,1,12,1.0,0.0,M,0.0,M,,*75
$GPGSA,A,3,01,02,03,04,05,06,07,08,09,10,11,12,1.0,1.0,1.0*30
$GPRMC,113451.466,A,3844.278,N,00908.328,W,000.2,267.3,220123,000.0,W*63
$GPGGA,113452.466,3844.278,N,00908.328,W,1,12,1.0,0.0,M,0.0,M,,*76
$GPGSA,A,3,01,02,03,04,05,06,07,08,09,10,11,12,1.0,1.0,1.0*30
$GPRMC,113452.466,A,3844.278,N,00908.328,W,000.2,267.3,220123,000.0,W*60
